{"11146442@N00": [{"poi_name": "Perth_Town_Hall", "lat": -31.955, "long": 115.860556, "theme": "Structure"}, {"poi_name": "Perth_Arena", "lat": -31.94833, "long": 115.85193999999998, "theme": "Entertainment"}, {"poi_name": "Supreme_Court_Gardens", "lat": -31.9585, "long": 115.8599, "theme": "Park"}, {"poi_name": "Stirling_Gardens", "lat": -31.9565, "long": 115.86, "theme": "Park"}], "11587194@N06": [{"poi_name": "Perth_Town_Hall", "lat": -31.955, "long": 115.860556, "theme": "Structure"}, {"poi_name": "Supreme_Court_Gardens", "lat": -31.9585, "long": 115.8599, "theme": "Park"}, {"poi_name": "Perth_railway_station", "lat": -31.951493, "long": 115.860448, "theme": "Transport"}, {"poi_name": "Esplanade_railway_station", "lat": -31.956585999999998, "long": 115.855476, "theme": "Transport"}, {"poi_name": "Esplanade_Busport", "lat": -31.9562, "long": 115.85465, "theme": "Transport"}], "11845746@N00": [{"poi_name": "Western_Australian_Museum", "lat": -31.949559999999998, "long": 115.861391, "theme": "Cultural"}], "12199582@N00": [{"poi_name": "Art_Gallery_of_Western_Australia", "lat": -31.950623999999998, "long": 115.86089799999999, "theme": "Cultural"}], "12288823@N07": [{"poi_name": "Art_Gallery_of_Western_Australia", "lat": -31.950623999999998, "long": 115.86089799999999, "theme": "Cultural"}, {"poi_name": "State_Library_of_Western_Australia", "lat": -31.949031, "long": 115.86051299999998, "theme": "Structure"}, {"poi_name": "Wellington_Street_bus_station", "lat": -31.9505, "long": 115.85700000000001, "theme": "Transport"}, {"poi_name": "Western_Australian_Museum", "lat": -31.949559999999998, "long": 115.861391, "theme": "Cultural"}, {"poi_name": "S%C3%A1ndor_Palace", "lat": 47.4978, "long": 19.0378, "theme": "Historical"}, {"poi_name": "Sz%C3%A9chenyi_Medicinal_Bath", "lat": 47.518609999999995, "long": 19.08194, "theme": "Park"}, {"poi_name": "Kensington_Market", "lat": 43.654772200000004, "long": -79.4006778, "theme": "Shopping"}], "15213592@N03": [{"poi_name": "Perth_Town_Hall", "lat": -31.955, "long": 115.860556, "theme": "Structure"}, {"poi_name": "Parliament_House,_Perth", "lat": -31.951634000000002, "long": 115.847209, "theme": "Structure"}, {"poi_name": "State_Library_of_Western_Australia", "lat": -31.949031, "long": 115.86051299999998, "theme": "Structure"}, {"poi_name": "Supreme_Court_Gardens", "lat": -31.9585, "long": 115.8599, "theme": "Park"}, {"poi_name": "Stirling_Gardens", "lat": -31.9565, "long": 115.86, "theme": "Park"}, {"poi_name": "Russell_Square,_Perth", "lat": -31.9461, "long": 115.8555, "theme": "Park"}, {"poi_name": "Art_Gallery_of_Western_Australia", "lat": -31.950623999999998, "long": 115.86089799999999, "theme": "Cultural"}, {"poi_name": "Western_Australian_Museum", "lat": -31.949559999999998, "long": 115.861391, "theme": "Cultural"}, {"poi_name": "Perth_Oval", "lat": -31.945829999999997, "long": 115.87, "theme": "Sport"}, {"poi_name": "East_Perth_railway_station", "lat": -31.943896000000002, "long": 115.876976, "theme": "Transport"}, {"poi_name": "Perth_railway_station", "lat": -31.951493, "long": 115.860448, "theme": "Transport"}, {"poi_name": "Esplanade_railway_station", "lat": -31.956585999999998, "long": 115.855476, "theme": "Transport"}, {"poi_name": "Esplanade_Busport", "lat": -31.9562, "long": 115.85465, "theme": "Transport"}, {"poi_name": "Wellington_Street_bus_station", "lat": -31.9505, "long": 115.85700000000001, "theme": "Transport"}, {"poi_name": "Crown_Perth", "lat": -31.960829999999998, "long": 115.89556, "theme": "Entertainment"}, {"poi_name": "Perth_Concert_Hall,_Western_Australia", "lat": -31.958059999999996, "long": 115.86361000000001, "theme": "Entertainment"}, {"poi_name": "Perth_Arena", "lat": -31.94833, "long": 115.85193999999998, "theme": "Entertainment"}], "16105263@N00": [{"poi_name": "Perth_Oval", "lat": -31.945829999999997, "long": 115.87, "theme": "Sport"}], "17295541@N02": [{"poi_name": "Wellington_Street_bus_station", "lat": -31.9505, "long": 115.85700000000001, "theme": "Transport"}], "17611055@N00": [{"poi_name": "State_Library_of_Western_Australia", "lat": -31.949031, "long": 115.86051299999998, "theme": "Structure"}], "19229064@N00": [{"poi_name": "Perth_Concert_Hall,_Western_Australia", "lat": -31.958059999999996, "long": 115.86361000000001, "theme": "Entertainment"}, {"poi_name": "Supreme_Court_Gardens", "lat": -31.9585, "long": 115.8599, "theme": "Park"}, {"poi_name": "St_Giles%27_Cathedral", "lat": 55.94944, "long": -3.19083, "theme": "Cultural"}], "19604783@N00": [{"poi_name": "Supreme_Court_Gardens", "lat": -31.9585, "long": 115.8599, "theme": "Park"}], "20385902@N03": [{"poi_name": "Perth_Town_Hall", "lat": -31.955, "long": 115.860556, "theme": "Structure"}, {"poi_name": "Esplanade_Busport", "lat": -31.9562, "long": 115.85465, "theme": "Transport"}, {"poi_name": "Western_Australian_Museum", "lat": -31.949559999999998, "long": 115.861391, "theme": "Cultural"}, {"poi_name": "Jama_Masjid,_Delhi", "lat": 28.6507, "long": 77.2334, "theme": "Religious"}], "20692723@N07": [{"poi_name": "Supreme_Court_Gardens", "lat": -31.9585, "long": 115.8599, "theme": "Park"}], "20724439@N00": [{"poi_name": "Esplanade_Busport", "lat": -31.9562, "long": 115.85465, "theme": "Transport"}], "21156246@N00": [{"poi_name": "Perth_railway_station", "lat": -31.951493, "long": 115.860448, "theme": "Transport"}, {"poi_name": "Western_Australian_Museum", "lat": -31.949559999999998, "long": 115.861391, "theme": "Cultural"}, {"poi_name": "Perth_Concert_Hall,_Western_Australia", "lat": -31.958059999999996, "long": 115.86361000000001, "theme": "Entertainment"}, {"poi_name": "Supreme_Court_Gardens", "lat": -31.9585, "long": 115.8599, "theme": "Park"}], "21717623@N04": [{"poi_name": "Russell_Square,_Perth", "lat": -31.9461, "long": 115.8555, "theme": "Park"}, {"poi_name": "Art_Gallery_of_Western_Australia", "lat": -31.950623999999998, "long": 115.86089799999999, "theme": "Cultural"}, {"poi_name": "Perth_railway_station", "lat": -31.951493, "long": 115.860448, "theme": "Transport"}, {"poi_name": "Perth_Town_Hall", "lat": -31.955, "long": 115.860556, "theme": "Structure"}], "22563879@N04": [{"poi_name": "Perth_railway_station", "lat": -31.951493, "long": 115.860448, "theme": "Transport"}], "22872308@N00": [{"poi_name": "State_Library_of_Western_Australia", "lat": -31.949031, "long": 115.86051299999998, "theme": "Structure"}, {"poi_name": "Chinatown,_Perth", "lat": -31.945999999999998, "long": 115.854, "theme": "Precinct"}, {"poi_name": "WACA_Ground", "lat": -31.96, "long": 115.87971999999999, "theme": "Sport"}, {"poi_name": "Perth_railway_station", "lat": -31.951493, "long": 115.860448, "theme": "Transport"}, {"poi_name": "Perth_Concert_Hall,_Western_Australia", "lat": -31.958059999999996, "long": 115.86361000000001, "theme": "Entertainment"}, {"poi_name": "Perth_Arena", "lat": -31.94833, "long": 115.85193999999998, "theme": "Entertainment"}], "22997058@N02": [{"poi_name": "Crown_Perth", "lat": -31.960829999999998, "long": 115.89556, "theme": "Entertainment"}, {"poi_name": "WACA_Ground", "lat": -31.96, "long": 115.87971999999999, "theme": "Sport"}], "23698286@N00": [{"poi_name": "Perth_Town_Hall", "lat": -31.955, "long": 115.860556, "theme": "Structure"}, {"poi_name": "Supreme_Court_Gardens", "lat": -31.9585, "long": 115.8599, "theme": "Park"}, {"poi_name": "Stirling_Gardens", "lat": -31.9565, "long": 115.86, "theme": "Park"}], "23809369@N08": [{"poi_name": "Perth_Town_Hall", "lat": -31.955, "long": 115.860556, "theme": "Structure"}, {"poi_name": "Art_Gallery_of_Western_Australia", "lat": -31.950623999999998, "long": 115.86089799999999, "theme": "Cultural"}, {"poi_name": "Perth_railway_station", "lat": -31.951493, "long": 115.860448, "theme": "Transport"}], "24363024@N06": [{"poi_name": "Stirling_Gardens", "lat": -31.9565, "long": 115.86, "theme": "Park"}], "24395823@N03": [{"poi_name": "Supreme_Court_Gardens", "lat": -31.9585, "long": 115.8599, "theme": "Park"}, {"poi_name": "Stirling_Gardens", "lat": -31.9565, "long": 115.86, "theme": "Park"}], "24576031@N04": [{"poi_name": "Western_Australian_Museum", "lat": -31.949559999999998, "long": 115.861391, "theme": "Cultural"}], "24918835@N03": [{"poi_name": "Perth_Town_Hall", "lat": -31.955, "long": 115.860556, "theme": "Structure"}, {"poi_name": "Chinatown,_Perth", "lat": -31.945999999999998, "long": 115.854, "theme": "Precinct"}, {"poi_name": "Supreme_Court_Gardens", "lat": -31.9585, "long": 115.8599, "theme": "Park"}, {"poi_name": "Stirling_Gardens", "lat": -31.9565, "long": 115.86, "theme": "Park"}, {"poi_name": "Perth_railway_station", "lat": -31.951493, "long": 115.860448, "theme": "Transport"}], "25046991@N00": [{"poi_name": "Perth_Town_Hall", "lat": -31.955, "long": 115.860556, "theme": "Structure"}, {"poi_name": "Supreme_Court_Gardens", "lat": -31.9585, "long": 115.8599, "theme": "Park"}, {"poi_name": "Stirling_Gardens", "lat": -31.9565, "long": 115.86, "theme": "Park"}, {"poi_name": "Art_Gallery_of_Western_Australia", "lat": -31.950623999999998, "long": 115.86089799999999, "theme": "Cultural"}, {"poi_name": "Esplanade_Busport", "lat": -31.9562, "long": 115.85465, "theme": "Transport"}, {"poi_name": "Perth_Concert_Hall,_Western_Australia", "lat": -31.958059999999996, "long": 115.86361000000001, "theme": "Entertainment"}], "25208029@N00": [{"poi_name": "Perth_railway_station", "lat": -31.951493, "long": 115.860448, "theme": "Transport"}], "25448337@N07": [{"poi_name": "Perth_Town_Hall", "lat": -31.955, "long": 115.860556, "theme": "Structure"}, {"poi_name": "Supreme_Court_Gardens", "lat": -31.9585, "long": 115.8599, "theme": "Park"}, {"poi_name": "Art_Gallery_of_Western_Australia", "lat": -31.950623999999998, "long": 115.86089799999999, "theme": "Cultural"}, {"poi_name": "Western_Australian_Museum", "lat": -31.949559999999998, "long": 115.861391, "theme": "Cultural"}, {"poi_name": "Perth_railway_station", "lat": -31.951493, "long": 115.860448, "theme": "Transport"}, {"poi_name": "Wellington_Street_bus_station", "lat": -31.9505, "long": 115.85700000000001, "theme": "Transport"}], "25654955@N03": [{"poi_name": "Russell_Square,_Perth", "lat": -31.9461, "long": 115.8555, "theme": "Park"}], "26036678@N07": [{"poi_name": "Perth_railway_station", "lat": -31.951493, "long": 115.860448, "theme": "Transport"}, {"poi_name": "Air_Canada_Centre", "lat": 43.64333, "long": -79.37917, "theme": "Sport"}], "26223114@N02": [{"poi_name": "Perth_Oval", "lat": -31.945829999999997, "long": 115.87, "theme": "Sport"}], "26303188@N00": [{"poi_name": "Hyde_Park,_Perth", "lat": -31.9379, "long": 115.8628, "theme": "Park"}, {"poi_name": "State_Library_of_Western_Australia", "lat": -31.949031, "long": 115.86051299999998, "theme": "Structure"}], "26678013@N00": [{"poi_name": "Perth_railway_station", "lat": -31.951493, "long": 115.860448, "theme": "Transport"}, {"poi_name": "Western_Australian_Museum", "lat": -31.949559999999998, "long": 115.861391, "theme": "Cultural"}, {"poi_name": "Osaka_Aquarium_Kaiyukan", "lat": 34.654472, "long": 135.428889, "theme": "Amusement"}, {"poi_name": "Tempozan_Ferris_Wheel", "lat": 34.6561657, "long": 135.43103100000002, "theme": "Amusement"}, {"poi_name": "Doyama,_Osaka,_Japan", "lat": 34.703165000000006, "long": 135.502882, "theme": "Entertainment"}], "26757052@N04": [{"poi_name": "Perth_Town_Hall", "lat": -31.955, "long": 115.860556, "theme": "Structure"}, {"poi_name": "State_Library_of_Western_Australia", "lat": -31.949031, "long": 115.86051299999998, "theme": "Structure"}, {"poi_name": "Stirling_Gardens", "lat": -31.9565, "long": 115.86, "theme": "Park"}, {"poi_name": "Perth_railway_station", "lat": -31.951493, "long": 115.860448, "theme": "Transport"}, {"poi_name": "Esplanade_railway_station", "lat": -31.956585999999998, "long": 115.855476, "theme": "Transport"}, {"poi_name": "Esplanade_Busport", "lat": -31.9562, "long": 115.85465, "theme": "Transport"}, {"poi_name": "Amerikamura", "lat": 34.672086, "long": 135.49796, "theme": "Entertainment"}], "28637259@N03": [{"poi_name": "Perth_Town_Hall", "lat": -31.955, "long": 115.860556, "theme": "Structure"}, {"poi_name": "Wellington_Street_bus_station", "lat": -31.9505, "long": 115.85700000000001, "theme": "Transport"}], "28745244@N00": [{"poi_name": "Chinatown,_Perth", "lat": -31.945999999999998, "long": 115.854, "theme": "Precinct"}], "28787859@N05": [{"poi_name": "Perth_Town_Hall", "lat": -31.955, "long": 115.860556, "theme": "Structure"}, {"poi_name": "Perth_railway_station", "lat": -31.951493, "long": 115.860448, "theme": "Transport"}, {"poi_name": "Supreme_Court_Gardens", "lat": -31.9585, "long": 115.8599, "theme": "Park"}, {"poi_name": "Stirling_Gardens", "lat": -31.9565, "long": 115.86, "theme": "Park"}], "28836100@N00": [{"poi_name": "Supreme_Court_Gardens", "lat": -31.9585, "long": 115.8599, "theme": "Park"}, {"poi_name": "Perth_Concert_Hall,_Western_Australia", "lat": -31.958059999999996, "long": 115.86361000000001, "theme": "Entertainment"}], "29007050@N00": [{"poi_name": "Esplanade_railway_station", "lat": -31.956585999999998, "long": 115.855476, "theme": "Transport"}, {"poi_name": "Wellington_Street_bus_station", "lat": -31.9505, "long": 115.85700000000001, "theme": "Transport"}, {"poi_name": "Art_Gallery_of_Western_Australia", "lat": -31.950623999999998, "long": 115.86089799999999, "theme": "Cultural"}], "29795849@N00": [{"poi_name": "State_Library_of_Western_Australia", "lat": -31.949031, "long": 115.86051299999998, "theme": "Structure"}, {"poi_name": "Stirling_Gardens", "lat": -31.9565, "long": 115.86, "theme": "Park"}, {"poi_name": "Western_Australian_Museum", "lat": -31.949559999999998, "long": 115.861391, "theme": "Cultural"}, {"poi_name": "Esplanade_Busport", "lat": -31.9562, "long": 115.85465, "theme": "Transport"}, {"poi_name": "Perth_Concert_Hall,_Western_Australia", "lat": -31.958059999999996, "long": 115.86361000000001, "theme": "Entertainment"}], "30034121@N04": [{"poi_name": "State_Library_of_Western_Australia", "lat": -31.949031, "long": 115.86051299999998, "theme": "Structure"}, {"poi_name": "Art_Gallery_of_Western_Australia", "lat": -31.950623999999998, "long": 115.86089799999999, "theme": "Cultural"}, {"poi_name": "Western_Australian_Museum", "lat": -31.949559999999998, "long": 115.861391, "theme": "Cultural"}], "30226355@N07": [{"poi_name": "Perth_Town_Hall", "lat": -31.955, "long": 115.860556, "theme": "Structure"}, {"poi_name": "State_Library_of_Western_Australia", "lat": -31.949031, "long": 115.86051299999998, "theme": "Structure"}, {"poi_name": "Chinatown,_Perth", "lat": -31.945999999999998, "long": 115.854, "theme": "Precinct"}, {"poi_name": "Supreme_Court_Gardens", "lat": -31.9585, "long": 115.8599, "theme": "Park"}, {"poi_name": "Stirling_Gardens", "lat": -31.9565, "long": 115.86, "theme": "Park"}, {"poi_name": "Russell_Square,_Perth", "lat": -31.9461, "long": 115.8555, "theme": "Park"}, {"poi_name": "Perth_railway_station", "lat": -31.951493, "long": 115.860448, "theme": "Transport"}, {"poi_name": "Esplanade_railway_station", "lat": -31.956585999999998, "long": 115.855476, "theme": "Transport"}, {"poi_name": "Wellington_Street_bus_station", "lat": -31.9505, "long": 115.85700000000001, "theme": "Transport"}], "30659367@N00": [{"poi_name": "Perth_Town_Hall", "lat": -31.955, "long": 115.860556, "theme": "Structure"}, {"poi_name": "Art_Gallery_of_Western_Australia", "lat": -31.950623999999998, "long": 115.86089799999999, "theme": "Cultural"}, {"poi_name": "Perth_railway_station", "lat": -31.951493, "long": 115.860448, "theme": "Transport"}, {"poi_name": "Hofburg_Palace", "lat": 48.206507, "long": 16.365262, "theme": "Palace"}, {"poi_name": "Kunsthistorisches_Museum", "lat": 48.2037, "long": 16.3614, "theme": "Museum"}, {"poi_name": "Naturhistorisches_Museum", "lat": 48.2052, "long": 16.3599, "theme": "Museum"}, {"poi_name": "Spanish_Riding_School", "lat": 48.2075, "long": 16.36611, "theme": "Entertainment"}, {"poi_name": "St._Stephen%27s_Cathedral,_Vienna", "lat": 48.2085, "long": 16.373, "theme": "Historical"}, {"poi_name": "S%C3%A1ndor_Palace", "lat": 47.4978, "long": 19.0378, "theme": "Historical"}, {"poi_name": "Saint_Stephen%27s_Basilica", "lat": 47.500833, "long": 19.053889, "theme": "Cultural"}, {"poi_name": "Gresham_Palace", "lat": 47.4997472, "long": 19.047980600000002, "theme": "Historical"}, {"poi_name": "Buda_Castle", "lat": 47.496109999999994, "long": 19.039720000000003, "theme": "Historical"}, {"poi_name": "Hungarian_State_Opera_House", "lat": 47.5028083, "long": 19.0581889, "theme": "Cultural"}, {"poi_name": "Sz%C3%A9chenyi_Chain_Bridge", "lat": 47.49889, "long": 19.04361, "theme": "Transport"}, {"poi_name": "Matthias_Church", "lat": 47.501940000000005, "long": 19.03417, "theme": "Cultural"}, {"poi_name": "Fisherman%27s_Bastion", "lat": 47.501670000000004, "long": 19.035, "theme": "Historical"}, {"poi_name": "Sz%C3%A9chenyi_Medicinal_Bath", "lat": 47.518609999999995, "long": 19.08194, "theme": "Park"}, {"poi_name": "Budapest_Kunsthalle", "lat": 47.5140222, "long": 19.0786778, "theme": "Museum"}, {"poi_name": "Museum_of_Fine_Arts_(Budapest)", "lat": 47.51611, "long": 19.07639, "theme": "Museum"}, {"poi_name": "Szabads%C3%A1g_t%C3%A9r", "lat": 47.50472, "long": 19.050279999999997, "theme": "Park"}], "30920192@N08": [{"poi_name": "Perth_Town_Hall", "lat": -31.955, "long": 115.860556, "theme": "Structure"}], "31880573@N02": [{"poi_name": "Stirling_Gardens", "lat": -31.9565, "long": 115.86, "theme": "Park"}], "32192893@N08": [{"poi_name": "Perth_Town_Hall", "lat": -31.955, "long": 115.860556, "theme": "Structure"}, {"poi_name": "State_Library_of_Western_Australia", "lat": -31.949031, "long": 115.86051299999998, "theme": "Structure"}, {"poi_name": "Supreme_Court_Gardens", "lat": -31.9585, "long": 115.8599, "theme": "Park"}, {"poi_name": "Stirling_Gardens", "lat": -31.9565, "long": 115.86, "theme": "Park"}, {"poi_name": "Art_Gallery_of_Western_Australia", "lat": -31.950623999999998, "long": 115.86089799999999, "theme": "Cultural"}, {"poi_name": "Western_Australian_Museum", "lat": -31.949559999999998, "long": 115.861391, "theme": "Cultural"}, {"poi_name": "Perth_railway_station", "lat": -31.951493, "long": 115.860448, "theme": "Transport"}, {"poi_name": "Esplanade_Busport", "lat": -31.9562, "long": 115.85465, "theme": "Transport"}, {"poi_name": "Wellington_Street_bus_station", "lat": -31.9505, "long": 115.85700000000001, "theme": "Transport"}, {"poi_name": "Crown_Perth", "lat": -31.960829999999998, "long": 115.89556, "theme": "Entertainment"}], "32636708@N00": [{"poi_name": "Wellington_Street_bus_station", "lat": -31.9505, "long": 115.85700000000001, "theme": "Transport"}], "33126267@N06": [{"poi_name": "Perth_Town_Hall", "lat": -31.955, "long": 115.860556, "theme": "Structure"}, {"poi_name": "Esplanade_Busport", "lat": -31.9562, "long": 115.85465, "theme": "Transport"}, {"poi_name": "Stirling_Gardens", "lat": -31.9565, "long": 115.86, "theme": "Park"}], "33198390@N06": [{"poi_name": "Perth_Town_Hall", "lat": -31.955, "long": 115.860556, "theme": "Structure"}], "33690003@N07": [{"poi_name": "State_Library_of_Western_Australia", "lat": -31.949031, "long": 115.86051299999998, "theme": "Structure"}], "34087769@N06": [{"poi_name": "State_Library_of_Western_Australia", "lat": -31.949031, "long": 115.86051299999998, "theme": "Structure"}], "35034356424@N01": [{"poi_name": "Perth_Town_Hall", "lat": -31.955, "long": 115.860556, "theme": "Structure"}, {"poi_name": "Parliament_House,_Perth", "lat": -31.951634000000002, "long": 115.847209, "theme": "Structure"}, {"poi_name": "State_Library_of_Western_Australia", "lat": -31.949031, "long": 115.86051299999998, "theme": "Structure"}, {"poi_name": "Stirling_Gardens", "lat": -31.9565, "long": 115.86, "theme": "Park"}, {"poi_name": "Hyde_Park,_Perth", "lat": -31.9379, "long": 115.8628, "theme": "Park"}, {"poi_name": "Art_Gallery_of_Western_Australia", "lat": -31.950623999999998, "long": 115.86089799999999, "theme": "Cultural"}, {"poi_name": "Western_Australian_Museum", "lat": -31.949559999999998, "long": 115.861391, "theme": "Cultural"}, {"poi_name": "Perth_railway_station", "lat": -31.951493, "long": 115.860448, "theme": "Transport"}, {"poi_name": "Esplanade_railway_station", "lat": -31.956585999999998, "long": 115.855476, "theme": "Transport"}, {"poi_name": "Esplanade_Busport", "lat": -31.9562, "long": 115.85465, "theme": "Transport"}, {"poi_name": "Wellington_Street_bus_station", "lat": -31.9505, "long": 115.85700000000001, "theme": "Transport"}, {"poi_name": "Crown_Perth", "lat": -31.960829999999998, "long": 115.89556, "theme": "Entertainment"}, {"poi_name": "Perth_Concert_Hall,_Western_Australia", "lat": -31.958059999999996, "long": 115.86361000000001, "theme": "Entertainment"}, {"poi_name": "MUMOK", "lat": 48.203722, "long": 16.357444, "theme": "Museum"}, {"poi_name": "St._Stephen%27s_Cathedral,_Vienna", "lat": 48.2085, "long": 16.373, "theme": "Historical"}, {"poi_name": "Hofburg_Palace", "lat": 48.206507, "long": 16.365262, "theme": "Palace"}], "35118454@N00": [{"poi_name": "Crown_Perth", "lat": -31.960829999999998, "long": 115.89556, "theme": "Entertainment"}], "37202464@N04": [{"poi_name": "Russell_Square,_Perth", "lat": -31.9461, "long": 115.8555, "theme": "Park"}, {"poi_name": "Wellington_Street_bus_station", "lat": -31.9505, "long": 115.85700000000001, "theme": "Transport"}, {"poi_name": "Perth_railway_station", "lat": -31.951493, "long": 115.860448, "theme": "Transport"}], "39944549@N03": [{"poi_name": "Supreme_Court_Gardens", "lat": -31.9585, "long": 115.8599, "theme": "Park"}], "40204125@N08": [{"poi_name": "Perth_Concert_Hall,_Western_Australia", "lat": -31.958059999999996, "long": 115.86361000000001, "theme": "Entertainment"}], "41282011@N00": [{"poi_name": "Perth_Town_Hall", "lat": -31.955, "long": 115.860556, "theme": "Structure"}], "41398827@N08": [{"poi_name": "Art_Gallery_of_Western_Australia", "lat": -31.950623999999998, "long": 115.86089799999999, "theme": "Cultural"}, {"poi_name": "Supreme_Court_Gardens", "lat": -31.9585, "long": 115.8599, "theme": "Park"}], "41894175689@N01": [{"poi_name": "Perth_Town_Hall", "lat": -31.955, "long": 115.860556, "theme": "Structure"}, {"poi_name": "Chinatown,_Perth", "lat": -31.945999999999998, "long": 115.854, "theme": "Precinct"}, {"poi_name": "Supreme_Court_Gardens", "lat": -31.9585, "long": 115.8599, "theme": "Park"}, {"poi_name": "Russell_Square,_Perth", "lat": -31.9461, "long": 115.8555, "theme": "Park"}, {"poi_name": "Perth_Concert_Hall,_Western_Australia", "lat": -31.958059999999996, "long": 115.86361000000001, "theme": "Entertainment"}, {"poi_name": "Perth_Arena", "lat": -31.94833, "long": 115.85193999999998, "theme": "Entertainment"}], "42509295@N00": [{"poi_name": "Western_Australian_Museum", "lat": -31.949559999999998, "long": 115.861391, "theme": "Cultural"}], "42586967@N06": [{"poi_name": "Wellington_Street_bus_station", "lat": -31.9505, "long": 115.85700000000001, "theme": "Transport"}], "42696941@N04": [{"poi_name": "Art_Gallery_of_Western_Australia", "lat": -31.950623999999998, "long": 115.86089799999999, "theme": "Cultural"}], "42708559@N00": [{"poi_name": "Perth_railway_station", "lat": -31.951493, "long": 115.860448, "theme": "Transport"}, {"poi_name": "Wellington_Street_bus_station", "lat": -31.9505, "long": 115.85700000000001, "theme": "Transport"}, {"poi_name": "Art_Gallery_of_Western_Australia", "lat": -31.950623999999998, "long": 115.86089799999999, "theme": "Cultural"}], "43337469@N00": [{"poi_name": "State_Library_of_Western_Australia", "lat": -31.949031, "long": 115.86051299999998, "theme": "Structure"}], "44124475706@N01": [{"poi_name": "Supreme_Court_Gardens", "lat": -31.9585, "long": 115.8599, "theme": "Park"}], "44124479801@N01": [{"poi_name": "Wellington_Street_bus_station", "lat": -31.9505, "long": 115.85700000000001, "theme": "Transport"}, {"poi_name": "Sz%C3%A9chenyi_Medicinal_Bath", "lat": 47.518609999999995, "long": 19.08194, "theme": "Park"}, {"poi_name": "Vigad%C3%B3_Concert_Hall", "lat": 47.4958944, "long": 19.0494556, "theme": "Cultural"}, {"poi_name": "House_of_Terror", "lat": 47.50694, "long": 19.065279999999998, "theme": "Museum"}, {"poi_name": "Franz_Liszt_Academy_of_Music", "lat": 47.503247200000004, "long": 19.0645167, "theme": "Cultural"}], "45033416@N00": [{"poi_name": "Perth_railway_station", "lat": -31.951493, "long": 115.860448, "theme": "Transport"}], "45104424@N00": [{"poi_name": "Supreme_Court_Gardens", "lat": -31.9585, "long": 115.8599, "theme": "Park"}], "46669054@N00": [{"poi_name": "State_Library_of_Western_Australia", "lat": -31.949031, "long": 115.86051299999998, "theme": "Structure"}], "46778425@N00": [{"poi_name": "Esplanade_railway_station", "lat": -31.956585999999998, "long": 115.855476, "theme": "Transport"}, {"poi_name": "Supreme_Court_Gardens", "lat": -31.9585, "long": 115.8599, "theme": "Park"}, {"poi_name": "Stirling_Gardens", "lat": -31.9565, "long": 115.86, "theme": "Park"}], "47147630@N00": [{"poi_name": "Russell_Square,_Perth", "lat": -31.9461, "long": 115.8555, "theme": "Park"}, {"poi_name": "Wellington_Street_bus_station", "lat": -31.9505, "long": 115.85700000000001, "theme": "Transport"}], "47365129@N07": [{"poi_name": "WACA_Ground", "lat": -31.96, "long": 115.87971999999999, "theme": "Sport"}, {"poi_name": "Perth_Oval", "lat": -31.945829999999997, "long": 115.87, "theme": "Sport"}], "47511315@N05": [{"poi_name": "Art_Gallery_of_Western_Australia", "lat": -31.950623999999998, "long": 115.86089799999999, "theme": "Cultural"}], "48148162@N08": [{"poi_name": "Western_Australian_Museum", "lat": -31.949559999999998, "long": 115.861391, "theme": "Cultural"}], "49192024@N08": [{"poi_name": "Western_Australian_Museum", "lat": -31.949559999999998, "long": 115.861391, "theme": "Cultural"}], "49503207397@N01": [{"poi_name": "Perth_Town_Hall", "lat": -31.955, "long": 115.860556, "theme": "Structure"}, {"poi_name": "Supreme_Court_Gardens", "lat": -31.9585, "long": 115.8599, "theme": "Park"}, {"poi_name": "Perth_railway_station", "lat": -31.951493, "long": 115.860448, "theme": "Transport"}, {"poi_name": "Wellington_Street_bus_station", "lat": -31.9505, "long": 115.85700000000001, "theme": "Transport"}, {"poi_name": "Perth_Concert_Hall,_Western_Australia", "lat": -31.958059999999996, "long": 115.86361000000001, "theme": "Entertainment"}, {"poi_name": "Austrian_Parliament_Building", "lat": 48.208059999999996, "long": 16.358060000000002, "theme": "Historical"}, {"poi_name": "Leopold_Museum", "lat": 48.2025, "long": 16.35889, "theme": "Museum"}, {"poi_name": "Kunsthistorisches_Museum", "lat": 48.2037, "long": 16.3614, "theme": "Museum"}, {"poi_name": "Hungarian_Parliament_Building", "lat": 47.50694, "long": 19.045560000000002, "theme": "Historical"}, {"poi_name": "Sz%C3%A9chenyi_Chain_Bridge", "lat": 47.49889, "long": 19.04361, "theme": "Transport"}, {"poi_name": "CN_Tower", "lat": 43.6426, "long": -79.3871, "theme": "Amusement"}, {"poi_name": "Royal_Ontario_Museum", "lat": 43.6675, "long": -79.39416999999999, "theme": "Cultural"}, {"poi_name": "Old_City_Hall_(Toronto)", "lat": 43.6525, "long": -79.38167, "theme": "Structure"}, {"poi_name": "Union_Station_(Toronto)", "lat": 43.64528, "long": -79.38056, "theme": "Structure"}], "49799680@N00": [{"poi_name": "Hyde_Park,_Perth", "lat": -31.9379, "long": 115.8628, "theme": "Park"}], "50148267@N00": [{"poi_name": "Perth_railway_station", "lat": -31.951493, "long": 115.860448, "theme": "Transport"}], "50999605@N00": [{"poi_name": "Art_Gallery_of_Western_Australia", "lat": -31.950623999999998, "long": 115.86089799999999, "theme": "Cultural"}], "51035610516@N01": [{"poi_name": "Perth_railway_station", "lat": -31.951493, "long": 115.860448, "theme": "Transport"}, {"poi_name": "Supreme_Court_Gardens", "lat": -31.9585, "long": 115.8599, "theme": "Park"}, {"poi_name": "Rogers_Centre", "lat": 43.64139, "long": -79.38917, "theme": "Sport"}, {"poi_name": "Ripley%27s_Aquarium_of_Canada", "lat": 43.642481, "long": -79.38605, "theme": "Cultural"}, {"poi_name": "Centreville_Amusement_Park", "lat": 43.6203083, "long": -79.3736778, "theme": "Amusement"}, {"poi_name": "CN_Tower", "lat": 43.6426, "long": -79.3871, "theme": "Amusement"}, {"poi_name": "Toronto_Islands", "lat": 43.62083, "long": -79.37861, "theme": "Beach"}, {"poi_name": "Yonge-Dundas_Square", "lat": 43.65611, "long": -79.38028, "theme": "Beach"}, {"poi_name": "Nathan_Phillips_Square", "lat": 43.6525, "long": -79.38361, "theme": "Beach"}, {"poi_name": "Kensington_Market", "lat": 43.654772200000004, "long": -79.4006778, "theme": "Shopping"}, {"poi_name": "Union_Station_(Toronto)", "lat": 43.64528, "long": -79.38056, "theme": "Structure"}], "51260961@N05": [{"poi_name": "Art_Gallery_of_Western_Australia", "lat": -31.950623999999998, "long": 115.86089799999999, "theme": "Cultural"}], "51782720@N00": [{"poi_name": "Supreme_Court_Gardens", "lat": -31.9585, "long": 115.8599, "theme": "Park"}], "51922341@N03": [{"poi_name": "Art_Gallery_of_Western_Australia", "lat": -31.950623999999998, "long": 115.86089799999999, "theme": "Cultural"}], "52015062@N00": [{"poi_name": "Perth_Town_Hall", "lat": -31.955, "long": 115.860556, "theme": "Structure"}, {"poi_name": "Albertina,_Vienna", "lat": 48.204440000000005, "long": 16.36778, "theme": "Museum"}, {"poi_name": "Kunsthistorisches_Museum", "lat": 48.2037, "long": 16.3614, "theme": "Museum"}, {"poi_name": "Naturhistorisches_Museum", "lat": 48.2052, "long": 16.3599, "theme": "Museum"}, {"poi_name": "Spanish_Riding_School", "lat": 48.2075, "long": 16.36611, "theme": "Entertainment"}, {"poi_name": "MUMOK", "lat": 48.203722, "long": 16.357444, "theme": "Museum"}, {"poi_name": "St._Stephen%27s_Cathedral,_Vienna", "lat": 48.2085, "long": 16.373, "theme": "Historical"}, {"poi_name": "Imperial_Crypt,_Vienna", "lat": 48.20556, "long": 16.36972, "theme": "Historical"}, {"poi_name": "Museum_f%C3%BCr_angewandte_Kunst_Wien", "lat": 48.2075, "long": 16.38167, "theme": "Museum"}, {"poi_name": "Vienna_State_Opera", "lat": 48.20278, "long": 16.368472, "theme": "Historical"}, {"poi_name": "Austrian_Parliament_Building", "lat": 48.208059999999996, "long": 16.358060000000002, "theme": "Historical"}, {"poi_name": "Mozarthaus_Vienna", "lat": 48.20778, "long": 16.37528, "theme": "Cultural"}, {"poi_name": "S%C3%A1ndor_Palace", "lat": 47.4978, "long": 19.0378, "theme": "Historical"}, {"poi_name": "Ervin_Szab%C3%B3_Library", "lat": 47.4893778, "long": 19.0648, "theme": "Historical"}, {"poi_name": "Gresham_Palace", "lat": 47.4997472, "long": 19.047980600000002, "theme": "Historical"}, {"poi_name": "Buda_Castle", "lat": 47.496109999999994, "long": 19.039720000000003, "theme": "Historical"}, {"poi_name": "V%C3%A1ci_utca", "lat": 47.4942222, "long": 19.052425, "theme": "Shopping"}, {"poi_name": "National_Sz%C3%A9ch%C3%A9nyi_Library", "lat": 47.495, "long": 19.039170000000002, "theme": "Historical"}, {"poi_name": "Vigad%C3%B3_Concert_Hall", "lat": 47.4958944, "long": 19.0494556, "theme": "Cultural"}, {"poi_name": "Erzs%C3%A9bet_Bridge", "lat": 47.490829999999995, "long": 19.04889, "theme": "Transport"}, {"poi_name": "Gell%C3%A9rt_Baths", "lat": 47.483708299999996, "long": 19.050972, "theme": "Park"}, {"poi_name": "Gell%C3%A9rt_Hill_Cave", "lat": 47.485105600000004, "long": 19.051977800000003, "theme": "Park"}, {"poi_name": "Great_Market_Hall_(Budapest)", "lat": 47.486670000000004, "long": 19.058889999999998, "theme": "Shopping"}, {"poi_name": "Liberty_Bridge_(Budapest)", "lat": 47.48583, "long": 19.055, "theme": "Transport"}, {"poi_name": "Hungarian_National_Museum", "lat": 47.49111, "long": 19.06278, "theme": "Museum"}, {"poi_name": "Doh%C3%A1ny_Street_Synagogue", "lat": 47.49583, "long": 19.06083, "theme": "Museum"}, {"poi_name": "Edinburgh_Castle", "lat": 55.948611, "long": -3.2008330000000003, "theme": "Historical"}, {"poi_name": "Holyrood_Palace", "lat": 55.9525, "long": -3.1725, "theme": "Historical"}, {"poi_name": "Scottish_Parliament_Building", "lat": 55.952158, "long": -3.175204, "theme": "Structure"}, {"poi_name": "Scott_Monument", "lat": 55.952417000000004, "long": -3.193278, "theme": "Historical"}, {"poi_name": "St_Giles%27_Cathedral", "lat": 55.94944, "long": -3.19083, "theme": "Cultural"}, {"poi_name": "Royal_Scottish_Academy_Building", "lat": 55.95175, "long": -3.196389, "theme": "Structure"}, {"poi_name": "Balmoral_Hotel", "lat": 55.952869400000004, "long": -3.1895083, "theme": "Structure"}, {"poi_name": "New_College,_Edinburgh", "lat": 55.9498, "long": -3.1952, "theme": "Structure"}], "52952793@N00": [{"poi_name": "Stirling_Gardens", "lat": -31.9565, "long": 115.86, "theme": "Park"}], "53464892@N00": [{"poi_name": "Supreme_Court_Gardens", "lat": -31.9585, "long": 115.8599, "theme": "Park"}], "53687491@N00": [{"poi_name": "Wellington_Street_bus_station", "lat": -31.9505, "long": 115.85700000000001, "theme": "Transport"}], "53942725@N00": [{"poi_name": "Perth_Town_Hall", "lat": -31.955, "long": 115.860556, "theme": "Structure"}, {"poi_name": "Stirling_Gardens", "lat": -31.9565, "long": 115.86, "theme": "Park"}, {"poi_name": "East_Perth_railway_station", "lat": -31.943896000000002, "long": 115.876976, "theme": "Transport"}, {"poi_name": "Perth_railway_station", "lat": -31.951493, "long": 115.860448, "theme": "Transport"}, {"poi_name": "Perth_Concert_Hall,_Western_Australia", "lat": -31.958059999999996, "long": 115.86361000000001, "theme": "Entertainment"}], "54048808@N00": [{"poi_name": "Esplanade_Busport", "lat": -31.9562, "long": 115.85465, "theme": "Transport"}], "54796434@N00": [{"poi_name": "East_Perth_railway_station", "lat": -31.943896000000002, "long": 115.876976, "theme": "Transport"}, {"poi_name": "Perth_railway_station", "lat": -31.951493, "long": 115.860448, "theme": "Transport"}, {"poi_name": "Esplanade_Busport", "lat": -31.9562, "long": 115.85465, "theme": "Transport"}, {"poi_name": "Perth_Concert_Hall,_Western_Australia", "lat": -31.958059999999996, "long": 115.86361000000001, "theme": "Entertainment"}, {"poi_name": "Perth_Arena", "lat": -31.94833, "long": 115.85193999999998, "theme": "Entertainment"}], "55299057@N00": [{"poi_name": "Esplanade_railway_station", "lat": -31.956585999999998, "long": 115.855476, "theme": "Transport"}, {"poi_name": "Supreme_Court_Gardens", "lat": -31.9585, "long": 115.8599, "theme": "Park"}], "55706193@N00": [{"poi_name": "Western_Australian_Museum", "lat": -31.949559999999998, "long": 115.861391, "theme": "Cultural"}], "56089141@N07": [{"poi_name": "Supreme_Court_Gardens", "lat": -31.9585, "long": 115.8599, "theme": "Park"}], "57841116@N03": [{"poi_name": "Perth_Town_Hall", "lat": -31.955, "long": 115.860556, "theme": "Structure"}, {"poi_name": "Supreme_Court_Gardens", "lat": -31.9585, "long": 115.8599, "theme": "Park"}, {"poi_name": "Stirling_Gardens", "lat": -31.9565, "long": 115.86, "theme": "Park"}, {"poi_name": "WACA_Ground", "lat": -31.96, "long": 115.87971999999999, "theme": "Sport"}, {"poi_name": "Perth_railway_station", "lat": -31.951493, "long": 115.860448, "theme": "Transport"}, {"poi_name": "Perth_Arena", "lat": -31.94833, "long": 115.85193999999998, "theme": "Entertainment"}], "59009185@N08": [{"poi_name": "Perth_railway_station", "lat": -31.951493, "long": 115.860448, "theme": "Transport"}], "59477099@N02": [{"poi_name": "Perth_Town_Hall", "lat": -31.955, "long": 115.860556, "theme": "Structure"}], "59874422@N00": [{"poi_name": "Perth_railway_station", "lat": -31.951493, "long": 115.860448, "theme": "Transport"}, {"poi_name": "Parliament_House,_Perth", "lat": -31.951634000000002, "long": 115.847209, "theme": "Structure"}, {"poi_name": "Perth_Town_Hall", "lat": -31.955, "long": 115.860556, "theme": "Structure"}], "60873930@N06": [{"poi_name": "Wellington_Street_bus_station", "lat": -31.9505, "long": 115.85700000000001, "theme": "Transport"}, {"poi_name": "Saint_Stephen%27s_Basilica", "lat": 47.500833, "long": 19.053889, "theme": "Cultural"}, {"poi_name": "Gresham_Palace", "lat": 47.4997472, "long": 19.047980600000002, "theme": "Historical"}, {"poi_name": "House_of_Terror", "lat": 47.50694, "long": 19.065279999999998, "theme": "Museum"}, {"poi_name": "Matthias_Church", "lat": 47.501940000000005, "long": 19.03417, "theme": "Cultural"}, {"poi_name": "Fisherman%27s_Bastion", "lat": 47.501670000000004, "long": 19.035, "theme": "Historical"}, {"poi_name": "Budapest_Kunsthalle", "lat": 47.5140222, "long": 19.0786778, "theme": "Museum"}, {"poi_name": "Museum_of_Fine_Arts_(Budapest)", "lat": 47.51611, "long": 19.07639, "theme": "Museum"}, {"poi_name": "Doh%C3%A1ny_Street_Synagogue", "lat": 47.49583, "long": 19.06083, "theme": "Museum"}], "61114765@N05": [{"poi_name": "East_Perth_railway_station", "lat": -31.943896000000002, "long": 115.876976, "theme": "Transport"}, {"poi_name": "State_Library_of_Western_Australia", "lat": -31.949031, "long": 115.86051299999998, "theme": "Structure"}], "62003934@N05": [{"poi_name": "Stirling_Gardens", "lat": -31.9565, "long": 115.86, "theme": "Park"}], "62433076@N00": [{"poi_name": "Perth_Town_Hall", "lat": -31.955, "long": 115.860556, "theme": "Structure"}, {"poi_name": "Wellington_Street_bus_station", "lat": -31.9505, "long": 115.85700000000001, "theme": "Transport"}], "63022030@N00": [{"poi_name": "Perth_Town_Hall", "lat": -31.955, "long": 115.860556, "theme": "Structure"}, {"poi_name": "Crown_Perth", "lat": -31.960829999999998, "long": 115.89556, "theme": "Entertainment"}, {"poi_name": "Stirling_Gardens", "lat": -31.9565, "long": 115.86, "theme": "Park"}], "63238390@N00": [{"poi_name": "Parliament_House,_Perth", "lat": -31.951634000000002, "long": 115.847209, "theme": "Structure"}, {"poi_name": "State_Library_of_Western_Australia", "lat": -31.949031, "long": 115.86051299999998, "theme": "Structure"}, {"poi_name": "Supreme_Court_Gardens", "lat": -31.9585, "long": 115.8599, "theme": "Park"}, {"poi_name": "Stirling_Gardens", "lat": -31.9565, "long": 115.86, "theme": "Park"}, {"poi_name": "WACA_Ground", "lat": -31.96, "long": 115.87971999999999, "theme": "Sport"}, {"poi_name": "Perth_Oval", "lat": -31.945829999999997, "long": 115.87, "theme": "Sport"}, {"poi_name": "Esplanade_railway_station", "lat": -31.956585999999998, "long": 115.855476, "theme": "Transport"}, {"poi_name": "Perth_Arena", "lat": -31.94833, "long": 115.85193999999998, "theme": "Entertainment"}], "63473635@N08": [{"poi_name": "Supreme_Court_Gardens", "lat": -31.9585, "long": 115.8599, "theme": "Park"}], "64015960@N00": [{"poi_name": "Supreme_Court_Gardens", "lat": -31.9585, "long": 115.8599, "theme": "Park"}, {"poi_name": "Wiener_Riesenrad", "lat": 48.2166505, "long": 16.3959494, "theme": "Entertainment"}, {"poi_name": "Saint_Stephen%27s_Basilica", "lat": 47.500833, "long": 19.053889, "theme": "Cultural"}, {"poi_name": "Gresham_Palace", "lat": 47.4997472, "long": 19.047980600000002, "theme": "Historical"}, {"poi_name": "Shoes_on_the_Danube_Promenade", "lat": 47.5039028, "long": 19.044783300000002, "theme": "Park"}, {"poi_name": "Hungarian_State_Opera_House", "lat": 47.5028083, "long": 19.0581889, "theme": "Cultural"}, {"poi_name": "Matthias_Church", "lat": 47.501940000000005, "long": 19.03417, "theme": "Cultural"}, {"poi_name": "Vigad%C3%B3_Concert_Hall", "lat": 47.4958944, "long": 19.0494556, "theme": "Cultural"}, {"poi_name": "Osaka_Castle", "lat": 34.68722, "long": 135.52583, "theme": "Park"}], "64551192@N07": [{"poi_name": "State_Library_of_Western_Australia", "lat": -31.949031, "long": 115.86051299999998, "theme": "Structure"}, {"poi_name": "Wellington_Street_bus_station", "lat": -31.9505, "long": 115.85700000000001, "theme": "Transport"}], "65072601@N00": [{"poi_name": "Perth_Town_Hall", "lat": -31.955, "long": 115.860556, "theme": "Structure"}, {"poi_name": "Chinatown,_Perth", "lat": -31.945999999999998, "long": 115.854, "theme": "Precinct"}, {"poi_name": "Supreme_Court_Gardens", "lat": -31.9585, "long": 115.8599, "theme": "Park"}, {"poi_name": "Stirling_Gardens", "lat": -31.9565, "long": 115.86, "theme": "Park"}, {"poi_name": "Russell_Square,_Perth", "lat": -31.9461, "long": 115.8555, "theme": "Park"}, {"poi_name": "Art_Gallery_of_Western_Australia", "lat": -31.950623999999998, "long": 115.86089799999999, "theme": "Cultural"}, {"poi_name": "Western_Australian_Museum", "lat": -31.949559999999998, "long": 115.861391, "theme": "Cultural"}, {"poi_name": "Perth_railway_station", "lat": -31.951493, "long": 115.860448, "theme": "Transport"}, {"poi_name": "Esplanade_railway_station", "lat": -31.956585999999998, "long": 115.855476, "theme": "Transport"}, {"poi_name": "Wellington_Street_bus_station", "lat": -31.9505, "long": 115.85700000000001, "theme": "Transport"}, {"poi_name": "Clyde_Auditorium", "lat": 55.85949599999999, "long": -4.287962, "theme": "Structure"}, {"poi_name": "Parliament_House,_Edinburgh", "lat": 55.949169999999995, "long": -3.19056, "theme": "Structure"}, {"poi_name": "Calton_Hill", "lat": 55.95528, "long": -3.18222, "theme": "Park"}, {"poi_name": "Balmoral_Hotel", "lat": 55.952869400000004, "long": -3.1895083, "theme": "Structure"}, {"poi_name": "Scottish_Parliament_Building", "lat": 55.952158, "long": -3.175204, "theme": "Structure"}], "65305532@N06": [{"poi_name": "Chinatown,_Perth", "lat": -31.945999999999998, "long": 115.854, "theme": "Precinct"}], "65728875@N00": [{"poi_name": "Perth_Town_Hall", "lat": -31.955, "long": 115.860556, "theme": "Structure"}, {"poi_name": "Parliament_House,_Perth", "lat": -31.951634000000002, "long": 115.847209, "theme": "Structure"}, {"poi_name": "State_Library_of_Western_Australia", "lat": -31.949031, "long": 115.86051299999998, "theme": "Structure"}, {"poi_name": "Chinatown,_Perth", "lat": -31.945999999999998, "long": 115.854, "theme": "Precinct"}, {"poi_name": "Supreme_Court_Gardens", "lat": -31.9585, "long": 115.8599, "theme": "Park"}, {"poi_name": "Stirling_Gardens", "lat": -31.9565, "long": 115.86, "theme": "Park"}, {"poi_name": "Russell_Square,_Perth", "lat": -31.9461, "long": 115.8555, "theme": "Park"}, {"poi_name": "Kings_Park,_Western_Australia", "lat": -31.96, "long": 115.83, "theme": "Park"}, {"poi_name": "Hyde_Park,_Perth", "lat": -31.9379, "long": 115.8628, "theme": "Park"}, {"poi_name": "Art_Gallery_of_Western_Australia", "lat": -31.950623999999998, "long": 115.86089799999999, "theme": "Cultural"}, {"poi_name": "Western_Australian_Museum", "lat": -31.949559999999998, "long": 115.861391, "theme": "Cultural"}, {"poi_name": "Perth_Oval", "lat": -31.945829999999997, "long": 115.87, "theme": "Sport"}, {"poi_name": "Perth_railway_station", "lat": -31.951493, "long": 115.860448, "theme": "Transport"}, {"poi_name": "Esplanade_railway_station", "lat": -31.956585999999998, "long": 115.855476, "theme": "Transport"}, {"poi_name": "Wellington_Street_bus_station", "lat": -31.9505, "long": 115.85700000000001, "theme": "Transport"}, {"poi_name": "Crown_Perth", "lat": -31.960829999999998, "long": 115.89556, "theme": "Entertainment"}, {"poi_name": "Perth_Concert_Hall,_Western_Australia", "lat": -31.958059999999996, "long": 115.86361000000001, "theme": "Entertainment"}, {"poi_name": "Perth_Arena", "lat": -31.94833, "long": 115.85193999999998, "theme": "Entertainment"}], "65987590@N00": [{"poi_name": "Esplanade_Busport", "lat": -31.9562, "long": 115.85465, "theme": "Transport"}], "66099107@N00": [{"poi_name": "Perth_Town_Hall", "lat": -31.955, "long": 115.860556, "theme": "Structure"}, {"poi_name": "Supreme_Court_Gardens", "lat": -31.9585, "long": 115.8599, "theme": "Park"}], "66917829@N03": [{"poi_name": "State_Library_of_Western_Australia", "lat": -31.949031, "long": 115.86051299999998, "theme": "Structure"}, {"poi_name": "Western_Australian_Museum", "lat": -31.949559999999998, "long": 115.861391, "theme": "Cultural"}], "68153555@N00": [{"poi_name": "Western_Australian_Museum", "lat": -31.949559999999998, "long": 115.861391, "theme": "Cultural"}], "68183366@N05": [{"poi_name": "Perth_Town_Hall", "lat": -31.955, "long": 115.860556, "theme": "Structure"}, {"poi_name": "State_Library_of_Western_Australia", "lat": -31.949031, "long": 115.86051299999998, "theme": "Structure"}, {"poi_name": "Stirling_Gardens", "lat": -31.9565, "long": 115.86, "theme": "Park"}, {"poi_name": "Western_Australian_Museum", "lat": -31.949559999999998, "long": 115.861391, "theme": "Cultural"}, {"poi_name": "Perth_railway_station", "lat": -31.951493, "long": 115.860448, "theme": "Transport"}, {"poi_name": "Esplanade_Busport", "lat": -31.9562, "long": 115.85465, "theme": "Transport"}, {"poi_name": "Crown_Perth", "lat": -31.960829999999998, "long": 115.89556, "theme": "Entertainment"}, {"poi_name": "Perth_Arena", "lat": -31.94833, "long": 115.85193999999998, "theme": "Entertainment"}, {"poi_name": "CN_Tower", "lat": 43.6426, "long": -79.3871, "theme": "Amusement"}], "70554732@N00": [{"poi_name": "Perth_Town_Hall", "lat": -31.955, "long": 115.860556, "theme": "Structure"}], "70708664@N00": [{"poi_name": "State_Library_of_Western_Australia", "lat": -31.949031, "long": 115.86051299999998, "theme": "Structure"}, {"poi_name": "Art_Gallery_of_Western_Australia", "lat": -31.950623999999998, "long": 115.86089799999999, "theme": "Cultural"}], "71081860@N08": [{"poi_name": "Perth_Town_Hall", "lat": -31.955, "long": 115.860556, "theme": "Structure"}, {"poi_name": "Supreme_Court_Gardens", "lat": -31.9585, "long": 115.8599, "theme": "Park"}, {"poi_name": "Perth_railway_station", "lat": -31.951493, "long": 115.860448, "theme": "Transport"}], "71302744@N00": [{"poi_name": "Perth_railway_station", "lat": -31.951493, "long": 115.860448, "theme": "Transport"}], "71976771@N00": [{"poi_name": "Stirling_Gardens", "lat": -31.9565, "long": 115.86, "theme": "Park"}], "74601184@N00": [{"poi_name": "Perth_railway_station", "lat": -31.951493, "long": 115.860448, "theme": "Transport"}, {"poi_name": "Art_Gallery_of_Western_Australia", "lat": -31.950623999999998, "long": 115.86089799999999, "theme": "Cultural"}], "74758738@N00": [{"poi_name": "Perth_Arena", "lat": -31.94833, "long": 115.85193999999998, "theme": "Entertainment"}], "74767963@N00": [{"poi_name": "Perth_railway_station", "lat": -31.951493, "long": 115.860448, "theme": "Transport"}], "75815807@N00": [{"poi_name": "Western_Australian_Museum", "lat": -31.949559999999998, "long": 115.861391, "theme": "Cultural"}, {"poi_name": "Chinatown,_Perth", "lat": -31.945999999999998, "long": 115.854, "theme": "Precinct"}, {"poi_name": "Art_Gallery_of_Western_Australia", "lat": -31.950623999999998, "long": 115.86089799999999, "theme": "Cultural"}], "76135747@N00": [{"poi_name": "Chinatown,_Perth", "lat": -31.945999999999998, "long": 115.854, "theme": "Precinct"}, {"poi_name": "Supreme_Court_Gardens", "lat": -31.9585, "long": 115.8599, "theme": "Park"}, {"poi_name": "Stirling_Gardens", "lat": -31.9565, "long": 115.86, "theme": "Park"}, {"poi_name": "Western_Australian_Museum", "lat": -31.949559999999998, "long": 115.861391, "theme": "Cultural"}, {"poi_name": "Esplanade_railway_station", "lat": -31.956585999999998, "long": 115.855476, "theme": "Transport"}, {"poi_name": "Wellington_Street_bus_station", "lat": -31.9505, "long": 115.85700000000001, "theme": "Transport"}, {"poi_name": "Crown_Perth", "lat": -31.960829999999998, "long": 115.89556, "theme": "Entertainment"}], "76652633@N00": [{"poi_name": "Stirling_Gardens", "lat": -31.9565, "long": 115.86, "theme": "Park"}], "76809551@N00": [{"poi_name": "Perth_Town_Hall", "lat": -31.955, "long": 115.860556, "theme": "Structure"}, {"poi_name": "Supreme_Court_Gardens", "lat": -31.9585, "long": 115.8599, "theme": "Park"}, {"poi_name": "Stirling_Gardens", "lat": -31.9565, "long": 115.86, "theme": "Park"}, {"poi_name": "Kings_Park,_Western_Australia", "lat": -31.96, "long": 115.83, "theme": "Park"}, {"poi_name": "Hyde_Park,_Perth", "lat": -31.9379, "long": 115.8628, "theme": "Park"}, {"poi_name": "Crown_Perth", "lat": -31.960829999999998, "long": 115.89556, "theme": "Entertainment"}, {"poi_name": "Perth_Arena", "lat": -31.94833, "long": 115.85193999999998, "theme": "Entertainment"}], "7706223@N02": [{"poi_name": "Perth_Town_Hall", "lat": -31.955, "long": 115.860556, "theme": "Structure"}, {"poi_name": "Parliament_House,_Perth", "lat": -31.951634000000002, "long": 115.847209, "theme": "Structure"}, {"poi_name": "State_Library_of_Western_Australia", "lat": -31.949031, "long": 115.86051299999998, "theme": "Structure"}, {"poi_name": "Supreme_Court_Gardens", "lat": -31.9585, "long": 115.8599, "theme": "Park"}, {"poi_name": "Stirling_Gardens", "lat": -31.9565, "long": 115.86, "theme": "Park"}, {"poi_name": "Hyde_Park,_Perth", "lat": -31.9379, "long": 115.8628, "theme": "Park"}, {"poi_name": "Art_Gallery_of_Western_Australia", "lat": -31.950623999999998, "long": 115.86089799999999, "theme": "Cultural"}, {"poi_name": "Western_Australian_Museum", "lat": -31.949559999999998, "long": 115.861391, "theme": "Cultural"}, {"poi_name": "Perth_railway_station", "lat": -31.951493, "long": 115.860448, "theme": "Transport"}, {"poi_name": "Esplanade_Busport", "lat": -31.9562, "long": 115.85465, "theme": "Transport"}, {"poi_name": "Wellington_Street_bus_station", "lat": -31.9505, "long": 115.85700000000001, "theme": "Transport"}, {"poi_name": "Crown_Perth", "lat": -31.960829999999998, "long": 115.89556, "theme": "Entertainment"}, {"poi_name": "MUMOK", "lat": 48.203722, "long": 16.357444, "theme": "Museum"}, {"poi_name": "Haus_der_Musik", "lat": 48.20417, "long": 16.37333, "theme": "Museum"}, {"poi_name": "Vienna_State_Opera", "lat": 48.20278, "long": 16.368472, "theme": "Historical"}], "7755749@N05": [{"poi_name": "Chinatown,_Perth", "lat": -31.945999999999998, "long": 115.854, "theme": "Precinct"}], "78211664@N00": [{"poi_name": "Esplanade_railway_station", "lat": -31.956585999999998, "long": 115.855476, "theme": "Transport"}, {"poi_name": "Perth_Arena", "lat": -31.94833, "long": 115.85193999999998, "theme": "Entertainment"}], "79968372@N00": [{"poi_name": "Perth_Town_Hall", "lat": -31.955, "long": 115.860556, "theme": "Structure"}, {"poi_name": "State_Library_of_Western_Australia", "lat": -31.949031, "long": 115.86051299999998, "theme": "Structure"}], "80202538@N00": [{"poi_name": "Perth_railway_station", "lat": -31.951493, "long": 115.860448, "theme": "Transport"}, {"poi_name": "State_Library_of_Western_Australia", "lat": -31.949031, "long": 115.86051299999998, "theme": "Structure"}, {"poi_name": "Western_Australian_Museum", "lat": -31.949559999999998, "long": 115.861391, "theme": "Cultural"}], "80296347@N00": [{"poi_name": "State_Library_of_Western_Australia", "lat": -31.949031, "long": 115.86051299999998, "theme": "Structure"}], "8074405@N06": [{"poi_name": "Supreme_Court_Gardens", "lat": -31.9585, "long": 115.8599, "theme": "Park"}], "80994469@N00": [{"poi_name": "State_Library_of_Western_Australia", "lat": -31.949031, "long": 115.86051299999998, "theme": "Structure"}, {"poi_name": "Western_Australian_Museum", "lat": -31.949559999999998, "long": 115.861391, "theme": "Cultural"}, {"poi_name": "Perth_Concert_Hall,_Western_Australia", "lat": -31.958059999999996, "long": 115.86361000000001, "theme": "Entertainment"}], "8198674@N05": [{"poi_name": "Perth_railway_station", "lat": -31.951493, "long": 115.860448, "theme": "Transport"}], "83899054@N05": [{"poi_name": "Supreme_Court_Gardens", "lat": -31.9585, "long": 115.8599, "theme": "Park"}], "84097316@N00": [{"poi_name": "Perth_Town_Hall", "lat": -31.955, "long": 115.860556, "theme": "Structure"}, {"poi_name": "State_Library_of_Western_Australia", "lat": -31.949031, "long": 115.86051299999998, "theme": "Structure"}, {"poi_name": "Russell_Square,_Perth", "lat": -31.9461, "long": 115.8555, "theme": "Park"}, {"poi_name": "Art_Gallery_of_Western_Australia", "lat": -31.950623999999998, "long": 115.86089799999999, "theme": "Cultural"}, {"poi_name": "Western_Australian_Museum", "lat": -31.949559999999998, "long": 115.861391, "theme": "Cultural"}, {"poi_name": "Perth_railway_station", "lat": -31.951493, "long": 115.860448, "theme": "Transport"}, {"poi_name": "Esplanade_railway_station", "lat": -31.956585999999998, "long": 115.855476, "theme": "Transport"}, {"poi_name": "Esplanade_Busport", "lat": -31.9562, "long": 115.85465, "theme": "Transport"}, {"poi_name": "Wellington_Street_bus_station", "lat": -31.9505, "long": 115.85700000000001, "theme": "Transport"}], "84141057@N00": [{"poi_name": "Parliament_House,_Perth", "lat": -31.951634000000002, "long": 115.847209, "theme": "Structure"}, {"poi_name": "Esplanade_Busport", "lat": -31.9562, "long": 115.85465, "theme": "Transport"}, {"poi_name": "Wellington_Street_bus_station", "lat": -31.9505, "long": 115.85700000000001, "theme": "Transport"}, {"poi_name": "Perth_Arena", "lat": -31.94833, "long": 115.85193999999998, "theme": "Entertainment"}], "84987970@N00": [{"poi_name": "Perth_Town_Hall", "lat": -31.955, "long": 115.860556, "theme": "Structure"}, {"poi_name": "State_Library_of_Western_Australia", "lat": -31.949031, "long": 115.86051299999998, "theme": "Structure"}, {"poi_name": "Supreme_Court_Gardens", "lat": -31.9585, "long": 115.8599, "theme": "Park"}, {"poi_name": "Stirling_Gardens", "lat": -31.9565, "long": 115.86, "theme": "Park"}, {"poi_name": "Queens_Gardens,_Perth", "lat": -31.9595, "long": 115.8766, "theme": "Park"}, {"poi_name": "Art_Gallery_of_Western_Australia", "lat": -31.950623999999998, "long": 115.86089799999999, "theme": "Cultural"}, {"poi_name": "Western_Australian_Museum", "lat": -31.949559999999998, "long": 115.861391, "theme": "Cultural"}, {"poi_name": "Perth_railway_station", "lat": -31.951493, "long": 115.860448, "theme": "Transport"}, {"poi_name": "Wellington_Street_bus_station", "lat": -31.9505, "long": 115.85700000000001, "theme": "Transport"}, {"poi_name": "Perth_Concert_Hall,_Western_Australia", "lat": -31.958059999999996, "long": 115.86361000000001, "theme": "Entertainment"}, {"poi_name": "Perth_Arena", "lat": -31.94833, "long": 115.85193999999998, "theme": "Entertainment"}, {"poi_name": "Air_Canada_Centre", "lat": 43.64333, "long": -79.37917, "theme": "Sport"}, {"poi_name": "BMO_Field", "lat": 43.63278, "long": -79.41861, "theme": "Sport"}, {"poi_name": "Maple_Leaf_Gardens", "lat": 43.66222, "long": -79.38028, "theme": "Sport"}, {"poi_name": "Rogers_Centre", "lat": 43.64139, "long": -79.38917, "theme": "Sport"}, {"poi_name": "Art_Gallery_of_Ontario", "lat": 43.653890000000004, "long": -79.39278, "theme": "Cultural"}, {"poi_name": "Hockey_Hall_of_Fame", "lat": 43.646976, "long": -79.377253, "theme": "Cultural"}, {"poi_name": "Ripley%27s_Aquarium_of_Canada", "lat": 43.642481, "long": -79.38605, "theme": "Cultural"}, {"poi_name": "Royal_Ontario_Museum", "lat": 43.6675, "long": -79.39416999999999, "theme": "Cultural"}, {"poi_name": "Canadian_National_Exhibition", "lat": 43.63333, "long": -79.41667, "theme": "Amusement"}, {"poi_name": "Centreville_Amusement_Park", "lat": 43.6203083, "long": -79.3736778, "theme": "Amusement"}, {"poi_name": "CN_Tower", "lat": 43.6426, "long": -79.3871, "theme": "Amusement"}, {"poi_name": "Exhibition_Place", "lat": 43.63278, "long": -79.41611, "theme": "Amusement"}, {"poi_name": "Toronto_Islands", "lat": 43.62083, "long": -79.37861, "theme": "Beach"}, {"poi_name": "Yonge-Dundas_Square", "lat": 43.65611, "long": -79.38028, "theme": "Beach"}, {"poi_name": "Nathan_Phillips_Square", "lat": 43.6525, "long": -79.38361, "theme": "Beach"}, {"poi_name": "Toronto_Eaton_Centre", "lat": 43.653982, "long": -79.380319, "theme": "Shopping"}, {"poi_name": "Harbourfront_Centre", "lat": 43.638490000000004, "long": -79.382068, "theme": "Shopping"}, {"poi_name": "Kensington_Market", "lat": 43.654772200000004, "long": -79.4006778, "theme": "Shopping"}, {"poi_name": "Yorkville,_Toronto", "lat": 43.67028, "long": -79.39111, "theme": "Shopping"}, {"poi_name": "Old_City_Hall_(Toronto)", "lat": 43.6525, "long": -79.38167, "theme": "Structure"}, {"poi_name": "Ontario_Legislative_Building", "lat": 43.662447, "long": -79.391708, "theme": "Structure"}, {"poi_name": "Union_Station_(Toronto)", "lat": 43.64528, "long": -79.38056, "theme": "Structure"}], "85225246@N00": [{"poi_name": "Wellington_Street_bus_station", "lat": -31.9505, "long": 115.85700000000001, "theme": "Transport"}], "86978295@N00": [{"poi_name": "Perth_Town_Hall", "lat": -31.955, "long": 115.860556, "theme": "Structure"}, {"poi_name": "State_Library_of_Western_Australia", "lat": -31.949031, "long": 115.86051299999998, "theme": "Structure"}, {"poi_name": "Supreme_Court_Gardens", "lat": -31.9585, "long": 115.8599, "theme": "Park"}, {"poi_name": "Stirling_Gardens", "lat": -31.9565, "long": 115.86, "theme": "Park"}, {"poi_name": "Art_Gallery_of_Western_Australia", "lat": -31.950623999999998, "long": 115.86089799999999, "theme": "Cultural"}, {"poi_name": "Western_Australian_Museum", "lat": -31.949559999999998, "long": 115.861391, "theme": "Cultural"}, {"poi_name": "Perth_railway_station", "lat": -31.951493, "long": 115.860448, "theme": "Transport"}, {"poi_name": "Wellington_Street_bus_station", "lat": -31.9505, "long": 115.85700000000001, "theme": "Transport"}, {"poi_name": "Crown_Perth", "lat": -31.960829999999998, "long": 115.89556, "theme": "Entertainment"}], "87232391@N00": [{"poi_name": "Perth_Town_Hall", "lat": -31.955, "long": 115.860556, "theme": "Structure"}], "87425632@N00": [{"poi_name": "Stirling_Gardens", "lat": -31.9565, "long": 115.86, "theme": "Park"}], "88366256@N05": [{"poi_name": "Perth_Town_Hall", "lat": -31.955, "long": 115.860556, "theme": "Structure"}], "89165847@N00": [{"poi_name": "Wellington_Street_bus_station", "lat": -31.9505, "long": 115.85700000000001, "theme": "Transport"}], "89197104@N00": [{"poi_name": "Perth_Town_Hall", "lat": -31.955, "long": 115.860556, "theme": "Structure"}], "89288865@N00": [{"poi_name": "Art_Gallery_of_Western_Australia", "lat": -31.950623999999998, "long": 115.86089799999999, "theme": "Cultural"}], "91273672@N02": [{"poi_name": "Parliament_House,_Perth", "lat": -31.951634000000002, "long": 115.847209, "theme": "Structure"}, {"poi_name": "Universal_Studios_Japan", "lat": 34.66472, "long": 135.43306, "theme": "Amusement"}, {"poi_name": "HEP_Five", "lat": 34.7040028, "long": 135.5004466, "theme": "Amusement"}], "92095273@N00": [{"poi_name": "Supreme_Court_Gardens", "lat": -31.9585, "long": 115.8599, "theme": "Park"}, {"poi_name": "Stirling_Gardens", "lat": -31.9565, "long": 115.86, "theme": "Park"}, {"poi_name": "Western_Australian_Museum", "lat": -31.949559999999998, "long": 115.861391, "theme": "Cultural"}, {"poi_name": "Perth_railway_station", "lat": -31.951493, "long": 115.860448, "theme": "Transport"}, {"poi_name": "Esplanade_railway_station", "lat": -31.956585999999998, "long": 115.855476, "theme": "Transport"}], "93042826@N00": [{"poi_name": "Chinatown,_Perth", "lat": -31.945999999999998, "long": 115.854, "theme": "Precinct"}, {"poi_name": "Perth_Arena", "lat": -31.94833, "long": 115.85193999999998, "theme": "Entertainment"}], "94513428@N00": [{"poi_name": "Perth_railway_station", "lat": -31.951493, "long": 115.860448, "theme": "Transport"}], "95464641@N00": [{"poi_name": "Wellington_Street_bus_station", "lat": -31.9505, "long": 115.85700000000001, "theme": "Transport"}, {"poi_name": "Perth_Concert_Hall,_Western_Australia", "lat": -31.958059999999996, "long": 115.86361000000001, "theme": "Entertainment"}, {"poi_name": "Hungarian_Parliament_Building", "lat": 47.50694, "long": 19.045560000000002, "theme": "Historical"}, {"poi_name": "Fisherman%27s_Bastion", "lat": 47.501670000000004, "long": 19.035, "theme": "Historical"}], "96301288@N00": [{"poi_name": "Perth_Town_Hall", "lat": -31.955, "long": 115.860556, "theme": "Structure"}, {"poi_name": "Supreme_Court_Gardens", "lat": -31.9585, "long": 115.8599, "theme": "Park"}, {"poi_name": "Osaka_Aquarium_Kaiyukan", "lat": 34.654472, "long": 135.428889, "theme": "Amusement"}, {"poi_name": "Namba", "lat": 34.66722, "long": 135.50028, "theme": "Entertainment"}], "96951910@N00": [{"poi_name": "Stirling_Gardens", "lat": -31.9565, "long": 115.86, "theme": "Park"}], "97055731@N00": [{"poi_name": "State_Library_of_Western_Australia", "lat": -31.949031, "long": 115.86051299999998, "theme": "Structure"}, {"poi_name": "Lotus_Temple", "lat": 28.553325, "long": 77.2586, "theme": "Religious"}, {"poi_name": "Lodhi_Gardens", "lat": 28.593000000000004, "long": 77.22, "theme": "Park"}, {"poi_name": "Red_Fort", "lat": 28.655746999999998, "long": 77.241625, "theme": "Architectural"}], "97306765@N00": [{"poi_name": "Perth_railway_station", "lat": -31.951493, "long": 115.860448, "theme": "Transport"}], "98983159@N00": [{"poi_name": "Perth_Concert_Hall,_Western_Australia", "lat": -31.958059999999996, "long": 115.86361000000001, "theme": "Entertainment"}, {"poi_name": "Stirling_Gardens", "lat": -31.9565, "long": 115.86, "theme": "Park"}], "99395734@N08": [{"poi_name": "Western_Australian_Museum", "lat": -31.949559999999998, "long": 115.861391, "theme": "Cultural"}, {"poi_name": "Esplanade_Busport", "lat": -31.9562, "long": 115.85465, "theme": "Transport"}, {"poi_name": "Wellington_Street_bus_station", "lat": -31.9505, "long": 115.85700000000001, "theme": "Transport"}, {"poi_name": "Crown_Perth", "lat": -31.960829999999998, "long": 115.89556, "theme": "Entertainment"}, {"poi_name": "Perth_Arena", "lat": -31.94833, "long": 115.85193999999998, "theme": "Entertainment"}], "99922010@N00": [{"poi_name": "Supreme_Court_Gardens", "lat": -31.9585, "long": 115.8599, "theme": "Park"}], "10002536@N02": [{"poi_name": "Donauturm", "lat": 48.24, "long": 16.410829999999997, "theme": "Structure"}], "10014440@N06": [{"poi_name": "Hofburg_Palace", "lat": 48.206507, "long": 16.365262, "theme": "Palace"}, {"poi_name": "Kunsthistorisches_Museum", "lat": 48.2037, "long": 16.3614, "theme": "Museum"}, {"poi_name": "Rogers_Centre", "lat": 43.64139, "long": -79.38917, "theme": "Sport"}, {"poi_name": "Exhibition_Place", "lat": 43.63278, "long": -79.41611, "theme": "Amusement"}, {"poi_name": "Toronto_Eaton_Centre", "lat": 43.653982, "long": -79.380319, "theme": "Shopping"}, {"poi_name": "Harbourfront_Centre", "lat": 43.638490000000004, "long": -79.382068, "theme": "Shopping"}, {"poi_name": "Kensington_Market", "lat": 43.654772200000004, "long": -79.4006778, "theme": "Shopping"}], "10070485@N08": [{"poi_name": "Vienna_State_Opera", "lat": 48.20278, "long": 16.368472, "theme": "Historical"}], "100757375@N02": [{"poi_name": "Hofburg_Palace", "lat": 48.206507, "long": 16.365262, "theme": "Palace"}, {"poi_name": "Spanish_Riding_School", "lat": 48.2075, "long": 16.36611, "theme": "Entertainment"}, {"poi_name": "St._Stephen%27s_Cathedral,_Vienna", "lat": 48.2085, "long": 16.373, "theme": "Historical"}, {"poi_name": "Imperial_Crypt,_Vienna", "lat": 48.20556, "long": 16.36972, "theme": "Historical"}, {"poi_name": "Haus_der_Musik", "lat": 48.20417, "long": 16.37333, "theme": "Museum"}, {"poi_name": "Museum_f%C3%BCr_angewandte_Kunst_Wien", "lat": 48.2075, "long": 16.38167, "theme": "Museum"}], "10105011@N00": [{"poi_name": "Haus_des_Meeres", "lat": 48.1975, "long": 16.35306, "theme": "Zoo"}], "101164847@N04": [{"poi_name": "Technisches_Museum_Wien", "lat": 48.19083, "long": 16.3175, "theme": "Museum"}], "10123180@N04": [{"poi_name": "St._Stephen%27s_Cathedral,_Vienna", "lat": 48.2085, "long": 16.373, "theme": "Historical"}], "10131865@N02": [{"poi_name": "Albertina,_Vienna", "lat": 48.204440000000005, "long": 16.36778, "theme": "Museum"}, {"poi_name": "Hofburg_Palace", "lat": 48.206507, "long": 16.365262, "theme": "Palace"}, {"poi_name": "Spanish_Riding_School", "lat": 48.2075, "long": 16.36611, "theme": "Entertainment"}, {"poi_name": "St._Stephen%27s_Cathedral,_Vienna", "lat": 48.2085, "long": 16.373, "theme": "Historical"}, {"poi_name": "St._Charles%27s_Church,_Vienna", "lat": 48.198333, "long": 16.371389, "theme": "Historical"}, {"poi_name": "Austrian_Parliament_Building", "lat": 48.208059999999996, "long": 16.358060000000002, "theme": "Historical"}, {"poi_name": "Doh%C3%A1ny_Street_Synagogue", "lat": 47.49583, "long": 19.06083, "theme": "Museum"}], "101330524@N02": [{"poi_name": "Tiergarten_Sch%C3%B6nbrunn", "lat": 48.18222, "long": 16.3025, "theme": "Zoo"}, {"poi_name": "Belvedere_(palace)", "lat": 48.191439, "long": 16.380786999999998, "theme": "Palace"}, {"poi_name": "Haus_des_Meeres", "lat": 48.1975, "long": 16.35306, "theme": "Zoo"}, {"poi_name": "Leopold_Museum", "lat": 48.2025, "long": 16.35889, "theme": "Museum"}, {"poi_name": "Imperial_Crypt,_Vienna", "lat": 48.20556, "long": 16.36972, "theme": "Historical"}, {"poi_name": "St._Charles%27s_Church,_Vienna", "lat": 48.198333, "long": 16.371389, "theme": "Historical"}, {"poi_name": "Vienna_State_Opera", "lat": 48.20278, "long": 16.368472, "theme": "Historical"}, {"poi_name": "Kensington_Market", "lat": 43.654772200000004, "long": -79.4006778, "theme": "Shopping"}], "102237062@N02": [{"poi_name": "St._Stephen%27s_Cathedral,_Vienna", "lat": 48.2085, "long": 16.373, "theme": "Historical"}, {"poi_name": "Imperial_Crypt,_Vienna", "lat": 48.20556, "long": 16.36972, "theme": "Historical"}, {"poi_name": "Mozarthaus_Vienna", "lat": 48.20778, "long": 16.37528, "theme": "Cultural"}, {"poi_name": "Museum_f%C3%BCr_angewandte_Kunst_Wien", "lat": 48.2075, "long": 16.38167, "theme": "Museum"}, {"poi_name": "Hungarian_Parliament_Building", "lat": 47.50694, "long": 19.045560000000002, "theme": "Historical"}, {"poi_name": "Shoes_on_the_Danube_Promenade", "lat": 47.5039028, "long": 19.044783300000002, "theme": "Park"}, {"poi_name": "Gresham_Palace", "lat": 47.4997472, "long": 19.047980600000002, "theme": "Historical"}, {"poi_name": "Sz%C3%A9chenyi_Chain_Bridge", "lat": 47.49889, "long": 19.04361, "theme": "Transport"}, {"poi_name": "V%C3%A1ci_utca", "lat": 47.4942222, "long": 19.052425, "theme": "Shopping"}, {"poi_name": "Vigad%C3%B3_Concert_Hall", "lat": 47.4958944, "long": 19.0494556, "theme": "Cultural"}], "10271461@N00": [{"poi_name": "MUMOK", "lat": 48.203722, "long": 16.357444, "theme": "Museum"}, {"poi_name": "Spanish_Riding_School", "lat": 48.2075, "long": 16.36611, "theme": "Entertainment"}], "10294931@N00": [{"poi_name": "St._Charles%27s_Church,_Vienna", "lat": 48.198333, "long": 16.371389, "theme": "Historical"}], "102963247@N08": [{"poi_name": "Wiener_Riesenrad", "lat": 48.2166505, "long": 16.3959494, "theme": "Entertainment"}, {"poi_name": "Vienna_State_Opera", "lat": 48.20278, "long": 16.368472, "theme": "Historical"}], "10297518@N00": [{"poi_name": "MUMOK", "lat": 48.203722, "long": 16.357444, "theme": "Museum"}, {"poi_name": "Sch%C3%B6nbrunn_Palace", "lat": 48.184515999999995, "long": 16.311865, "theme": "Palace"}, {"poi_name": "Hofburg_Palace", "lat": 48.206507, "long": 16.365262, "theme": "Palace"}, {"poi_name": "Gell%C3%A9rt_Baths", "lat": 47.483708299999996, "long": 19.050972, "theme": "Park"}, {"poi_name": "Namba", "lat": 34.66722, "long": 135.50028, "theme": "Entertainment"}, {"poi_name": "Royal_Ontario_Museum", "lat": 43.6675, "long": -79.39416999999999, "theme": "Cultural"}], "10310250@N02": [{"poi_name": "St._Stephen%27s_Cathedral,_Vienna", "lat": 48.2085, "long": 16.373, "theme": "Historical"}], "10347082@N04": [{"poi_name": "St._Stephen%27s_Cathedral,_Vienna", "lat": 48.2085, "long": 16.373, "theme": "Historical"}, {"poi_name": "St._Charles%27s_Church,_Vienna", "lat": 48.198333, "long": 16.371389, "theme": "Historical"}, {"poi_name": "Albertina,_Vienna", "lat": 48.204440000000005, "long": 16.36778, "theme": "Museum"}, {"poi_name": "Vienna_State_Opera", "lat": 48.20278, "long": 16.368472, "theme": "Historical"}], "10404945@N05": [{"poi_name": "Austrian_National_Library", "lat": 48.206109999999995, "long": 16.36639, "theme": "Historical"}, {"poi_name": "St._Charles%27s_Church,_Vienna", "lat": 48.198333, "long": 16.371389, "theme": "Historical"}, {"poi_name": "St._Stephen%27s_Cathedral,_Vienna", "lat": 48.2085, "long": 16.373, "theme": "Historical"}, {"poi_name": "Spanish_Riding_School", "lat": 48.2075, "long": 16.36611, "theme": "Entertainment"}], "10501027@N08": [{"poi_name": "KunstHausWien", "lat": 48.210916999999995, "long": 16.393389000000003, "theme": "Museum"}], "10527553@N03": [{"poi_name": "St._Stephen%27s_Cathedral,_Vienna", "lat": 48.2085, "long": 16.373, "theme": "Historical"}, {"poi_name": "Wiener_Riesenrad", "lat": 48.2166505, "long": 16.3959494, "theme": "Entertainment"}, {"poi_name": "St._Charles%27s_Church,_Vienna", "lat": 48.198333, "long": 16.371389, "theme": "Historical"}, {"poi_name": "Museum_of_Fine_Arts_(Budapest)", "lat": 47.51611, "long": 19.07639, "theme": "Museum"}, {"poi_name": "Sz%C3%A9chenyi_Medicinal_Bath", "lat": 47.518609999999995, "long": 19.08194, "theme": "Park"}], "10606448@N00": [{"poi_name": "Wiener_Riesenrad", "lat": 48.2166505, "long": 16.3959494, "theme": "Entertainment"}, {"poi_name": "Hofburg_Palace", "lat": 48.206507, "long": 16.365262, "theme": "Palace"}, {"poi_name": "Naturhistorisches_Museum", "lat": 48.2052, "long": 16.3599, "theme": "Museum"}, {"poi_name": "Schatzkammer_(Vienna)", "lat": 48.20667, "long": 16.365560000000002, "theme": "Museum"}, {"poi_name": "Spanish_Riding_School", "lat": 48.2075, "long": 16.36611, "theme": "Entertainment"}], "10623250@N03": [{"poi_name": "Sch%C3%B6nbrunn_Palace", "lat": 48.184515999999995, "long": 16.311865, "theme": "Palace"}, {"poi_name": "Belvedere_(palace)", "lat": 48.191439, "long": 16.380786999999998, "theme": "Palace"}, {"poi_name": "Technisches_Museum_Wien", "lat": 48.19083, "long": 16.3175, "theme": "Museum"}, {"poi_name": "Spanish_Riding_School", "lat": 48.2075, "long": 16.36611, "theme": "Entertainment"}, {"poi_name": "St._Stephen%27s_Cathedral,_Vienna", "lat": 48.2085, "long": 16.373, "theme": "Historical"}, {"poi_name": "St._Charles%27s_Church,_Vienna", "lat": 48.198333, "long": 16.371389, "theme": "Historical"}, {"poi_name": "Museum_f%C3%BCr_angewandte_Kunst_Wien", "lat": 48.2075, "long": 16.38167, "theme": "Museum"}, {"poi_name": "Vienna_State_Opera", "lat": 48.20278, "long": 16.368472, "theme": "Historical"}, {"poi_name": "S%C3%A1ndor_Palace", "lat": 47.4978, "long": 19.0378, "theme": "Historical"}], "106655398@N08": [{"poi_name": "Hofburg_Palace", "lat": 48.206507, "long": 16.365262, "theme": "Palace"}], "10785432@N03": [{"poi_name": "Spanish_Riding_School", "lat": 48.2075, "long": 16.36611, "theme": "Entertainment"}, {"poi_name": "St._Stephen%27s_Cathedral,_Vienna", "lat": 48.2085, "long": 16.373, "theme": "Historical"}, {"poi_name": "KunstHausWien", "lat": 48.210916999999995, "long": 16.393389000000003, "theme": "Museum"}, {"poi_name": "Vienna_State_Opera", "lat": 48.20278, "long": 16.368472, "theme": "Historical"}, {"poi_name": "Austrian_National_Library", "lat": 48.206109999999995, "long": 16.36639, "theme": "Historical"}, {"poi_name": "S%C3%A1ndor_Palace", "lat": 47.4978, "long": 19.0378, "theme": "Historical"}, {"poi_name": "Shoes_on_the_Danube_Promenade", "lat": 47.5039028, "long": 19.044783300000002, "theme": "Park"}, {"poi_name": "Sz%C3%A9chenyi_Chain_Bridge", "lat": 47.49889, "long": 19.04361, "theme": "Transport"}, {"poi_name": "Matthias_Church", "lat": 47.501940000000005, "long": 19.03417, "theme": "Cultural"}, {"poi_name": "Fisherman%27s_Bastion", "lat": 47.501670000000004, "long": 19.035, "theme": "Historical"}, {"poi_name": "Great_Market_Hall_(Budapest)", "lat": 47.486670000000004, "long": 19.058889999999998, "theme": "Shopping"}, {"poi_name": "Szabads%C3%A1g_t%C3%A9r", "lat": 47.50472, "long": 19.050279999999997, "theme": "Park"}, {"poi_name": "Doh%C3%A1ny_Street_Synagogue", "lat": 47.49583, "long": 19.06083, "theme": "Museum"}], "10811045@N00": [{"poi_name": "Wiener_Riesenrad", "lat": 48.2166505, "long": 16.3959494, "theme": "Entertainment"}, {"poi_name": "Naturhistorisches_Museum", "lat": 48.2052, "long": 16.3599, "theme": "Museum"}, {"poi_name": "MUMOK", "lat": 48.203722, "long": 16.357444, "theme": "Museum"}, {"poi_name": "St._Stephen%27s_Cathedral,_Vienna", "lat": 48.2085, "long": 16.373, "theme": "Historical"}, {"poi_name": "Imperial_Crypt,_Vienna", "lat": 48.20556, "long": 16.36972, "theme": "Historical"}, {"poi_name": "Austrian_Parliament_Building", "lat": 48.208059999999996, "long": 16.358060000000002, "theme": "Historical"}, {"poi_name": "Mozarthaus_Vienna", "lat": 48.20778, "long": 16.37528, "theme": "Cultural"}], "10862752@N07": [{"poi_name": "MUMOK", "lat": 48.203722, "long": 16.357444, "theme": "Museum"}, {"poi_name": "St._Stephen%27s_Cathedral,_Vienna", "lat": 48.2085, "long": 16.373, "theme": "Historical"}, {"poi_name": "Naturhistorisches_Museum", "lat": 48.2052, "long": 16.3599, "theme": "Museum"}], "10863444@N00": [{"poi_name": "St._Stephen%27s_Cathedral,_Vienna", "lat": 48.2085, "long": 16.373, "theme": "Historical"}, {"poi_name": "Leopold_Museum", "lat": 48.2025, "long": 16.35889, "theme": "Museum"}, {"poi_name": "Spanish_Riding_School", "lat": 48.2075, "long": 16.36611, "theme": "Entertainment"}], "10888421@N00": [{"poi_name": "Belvedere_(palace)", "lat": 48.191439, "long": 16.380786999999998, "theme": "Palace"}], "10896102@N04": [{"poi_name": "Albertina,_Vienna", "lat": 48.204440000000005, "long": 16.36778, "theme": "Museum"}], "11055525@N08": [{"poi_name": "Naturhistorisches_Museum", "lat": 48.2052, "long": 16.3599, "theme": "Museum"}, {"poi_name": "Spanish_Riding_School", "lat": 48.2075, "long": 16.36611, "theme": "Entertainment"}, {"poi_name": "Imperial_Crypt,_Vienna", "lat": 48.20556, "long": 16.36972, "theme": "Historical"}, {"poi_name": "St._Charles%27s_Church,_Vienna", "lat": 48.198333, "long": 16.371389, "theme": "Historical"}, {"poi_name": "Vienna_State_Opera", "lat": 48.20278, "long": 16.368472, "theme": "Historical"}, {"poi_name": "Austrian_National_Library", "lat": 48.206109999999995, "long": 16.36639, "theme": "Historical"}], "11096804@N00": [{"poi_name": "MUMOK", "lat": 48.203722, "long": 16.357444, "theme": "Museum"}, {"poi_name": "St._Stephen%27s_Cathedral,_Vienna", "lat": 48.2085, "long": 16.373, "theme": "Historical"}], "11138560@N00": [{"poi_name": "Museum_f%C3%BCr_angewandte_Kunst_Wien", "lat": 48.2075, "long": 16.38167, "theme": "Museum"}], "11198476@N05": [{"poi_name": "St._Stephen%27s_Cathedral,_Vienna", "lat": 48.2085, "long": 16.373, "theme": "Historical"}], "11204783@N03": [{"poi_name": "Spanish_Riding_School", "lat": 48.2075, "long": 16.36611, "theme": "Entertainment"}, {"poi_name": "Statue_Park_(Budapest)", "lat": 47.426333299999996, "long": 18.9989306, "theme": "Museum"}, {"poi_name": "City_Park_(Budapest)", "lat": 47.51389, "long": 19.08472, "theme": "Park"}, {"poi_name": "Vajdahunyad_Castle", "lat": 47.51528, "long": 19.08194, "theme": "Historical"}, {"poi_name": "Erzs%C3%A9bet_Bridge", "lat": 47.490829999999995, "long": 19.04889, "theme": "Transport"}, {"poi_name": "Liberty_Bridge_(Budapest)", "lat": 47.48583, "long": 19.055, "theme": "Transport"}, {"poi_name": "Budapest_Kunsthalle", "lat": 47.5140222, "long": 19.0786778, "theme": "Museum"}, {"poi_name": "Hungarian_National_Museum", "lat": 47.49111, "long": 19.06278, "theme": "Museum"}, {"poi_name": "Doh%C3%A1ny_Street_Synagogue", "lat": 47.49583, "long": 19.06083, "theme": "Museum"}], "11222663@N02": [{"poi_name": "Wiener_Riesenrad", "lat": 48.2166505, "long": 16.3959494, "theme": "Entertainment"}, {"poi_name": "Spanish_Riding_School", "lat": 48.2075, "long": 16.36611, "theme": "Entertainment"}], "11277958@N07": [{"poi_name": "Tiergarten_Sch%C3%B6nbrunn", "lat": 48.18222, "long": 16.3025, "theme": "Zoo"}], "11308662@N07": [{"poi_name": "MUMOK", "lat": 48.203722, "long": 16.357444, "theme": "Museum"}, {"poi_name": "Imperial_Crypt,_Vienna", "lat": 48.20556, "long": 16.36972, "theme": "Historical"}, {"poi_name": "Leopold_Museum", "lat": 48.2025, "long": 16.35889, "theme": "Museum"}, {"poi_name": "Albertina,_Vienna", "lat": 48.204440000000005, "long": 16.36778, "theme": "Museum"}], "11327714@N00": [{"poi_name": "Kunsthistorisches_Museum", "lat": 48.2037, "long": 16.3614, "theme": "Museum"}], "11334344@N00": [{"poi_name": "St._Stephen%27s_Cathedral,_Vienna", "lat": 48.2085, "long": 16.373, "theme": "Historical"}], "11468468@N00": [{"poi_name": "Austrian_National_Library", "lat": 48.206109999999995, "long": 16.36639, "theme": "Historical"}, {"poi_name": "Wiener_Riesenrad", "lat": 48.2166505, "long": 16.3959494, "theme": "Entertainment"}, {"poi_name": "Hofburg_Palace", "lat": 48.206507, "long": 16.365262, "theme": "Palace"}, {"poi_name": "Spanish_Riding_School", "lat": 48.2075, "long": 16.36611, "theme": "Entertainment"}], "11554355@N00": [{"poi_name": "St._Stephen%27s_Cathedral,_Vienna", "lat": 48.2085, "long": 16.373, "theme": "Historical"}, {"poi_name": "Saint_Stephen%27s_Basilica", "lat": 47.500833, "long": 19.053889, "theme": "Cultural"}, {"poi_name": "Shoes_on_the_Danube_Promenade", "lat": 47.5039028, "long": 19.044783300000002, "theme": "Park"}, {"poi_name": "V%C3%A1ci_utca", "lat": 47.4942222, "long": 19.052425, "theme": "Shopping"}, {"poi_name": "Vigad%C3%B3_Concert_Hall", "lat": 47.4958944, "long": 19.0494556, "theme": "Cultural"}, {"poi_name": "Gell%C3%A9rt_Hill_Cave", "lat": 47.485105600000004, "long": 19.051977800000003, "theme": "Park"}, {"poi_name": "Great_Market_Hall_(Budapest)", "lat": 47.486670000000004, "long": 19.058889999999998, "theme": "Shopping"}], "11569205@N08": [{"poi_name": "Sch%C3%B6nbrunn_Palace", "lat": 48.184515999999995, "long": 16.311865, "theme": "Palace"}, {"poi_name": "Hofburg_Palace", "lat": 48.206507, "long": 16.365262, "theme": "Palace"}, {"poi_name": "Kunsthistorisches_Museum", "lat": 48.2037, "long": 16.3614, "theme": "Museum"}, {"poi_name": "Naturhistorisches_Museum", "lat": 48.2052, "long": 16.3599, "theme": "Museum"}, {"poi_name": "Spanish_Riding_School", "lat": 48.2075, "long": 16.36611, "theme": "Entertainment"}, {"poi_name": "St._Stephen%27s_Cathedral,_Vienna", "lat": 48.2085, "long": 16.373, "theme": "Historical"}, {"poi_name": "Austrian_Parliament_Building", "lat": 48.208059999999996, "long": 16.358060000000002, "theme": "Historical"}], "11605632@N03": [{"poi_name": "St._Stephen%27s_Cathedral,_Vienna", "lat": 48.2085, "long": 16.373, "theme": "Historical"}], "11701129@N00": [{"poi_name": "Albertina,_Vienna", "lat": 48.204440000000005, "long": 16.36778, "theme": "Museum"}], "11706283@N04": [{"poi_name": "MUMOK", "lat": 48.203722, "long": 16.357444, "theme": "Museum"}, {"poi_name": "Scottish_National_Gallery", "lat": 55.950917000000004, "long": -3.195667, "theme": "Museum"}, {"poi_name": "Forth_Rail_Bridge", "lat": 56.000420999999996, "long": -3.388726, "theme": "Structure"}], "11946969@N00": [{"poi_name": "Sch%C3%B6nbrunn_Palace", "lat": 48.184515999999995, "long": 16.311865, "theme": "Palace"}, {"poi_name": "Albertina,_Vienna", "lat": 48.204440000000005, "long": 16.36778, "theme": "Museum"}, {"poi_name": "Naturhistorisches_Museum", "lat": 48.2052, "long": 16.3599, "theme": "Museum"}, {"poi_name": "Spanish_Riding_School", "lat": 48.2075, "long": 16.36611, "theme": "Entertainment"}, {"poi_name": "St._Stephen%27s_Cathedral,_Vienna", "lat": 48.2085, "long": 16.373, "theme": "Historical"}, {"poi_name": "St._Charles%27s_Church,_Vienna", "lat": 48.198333, "long": 16.371389, "theme": "Historical"}, {"poi_name": "KunstHausWien", "lat": 48.210916999999995, "long": 16.393389000000003, "theme": "Museum"}, {"poi_name": "Palmenhaus_Sch%C3%B6nbrunn", "lat": 48.18472, "long": 16.30278, "theme": "Park"}, {"poi_name": "Austrian_Parliament_Building", "lat": 48.208059999999996, "long": 16.358060000000002, "theme": "Historical"}], "11953835@N03": [{"poi_name": "Albertina,_Vienna", "lat": 48.204440000000005, "long": 16.36778, "theme": "Museum"}, {"poi_name": "S%C3%A1ndor_Palace", "lat": 47.4978, "long": 19.0378, "theme": "Historical"}, {"poi_name": "Saint_Stephen%27s_Basilica", "lat": 47.500833, "long": 19.053889, "theme": "Cultural"}, {"poi_name": "Buda_Castle", "lat": 47.496109999999994, "long": 19.039720000000003, "theme": "Historical"}, {"poi_name": "Sz%C3%A9chenyi_Chain_Bridge", "lat": 47.49889, "long": 19.04361, "theme": "Transport"}, {"poi_name": "V%C3%A1ci_utca", "lat": 47.4942222, "long": 19.052425, "theme": "Shopping"}, {"poi_name": "National_Sz%C3%A9ch%C3%A9nyi_Library", "lat": 47.495, "long": 19.039170000000002, "theme": "Historical"}, {"poi_name": "Matthias_Church", "lat": 47.501940000000005, "long": 19.03417, "theme": "Cultural"}, {"poi_name": "Fisherman%27s_Bastion", "lat": 47.501670000000004, "long": 19.035, "theme": "Historical"}, {"poi_name": "Liberty_Statue_(Budapest)", "lat": 47.48639, "long": 19.04806, "theme": "Park"}, {"poi_name": "Great_Market_Hall_(Budapest)", "lat": 47.486670000000004, "long": 19.058889999999998, "theme": "Shopping"}], "11956371@N07": [{"poi_name": "St._Stephen%27s_Cathedral,_Vienna", "lat": 48.2085, "long": 16.373, "theme": "Historical"}, {"poi_name": "Hofburg_Palace", "lat": 48.206507, "long": 16.365262, "theme": "Palace"}, {"poi_name": "Austrian_National_Library", "lat": 48.206109999999995, "long": 16.36639, "theme": "Historical"}, {"poi_name": "Hungarian_Parliament_Building", "lat": 47.50694, "long": 19.045560000000002, "theme": "Historical"}, {"poi_name": "Buda_Castle", "lat": 47.496109999999994, "long": 19.039720000000003, "theme": "Historical"}, {"poi_name": "Matthias_Church", "lat": 47.501940000000005, "long": 19.03417, "theme": "Cultural"}, {"poi_name": "Fisherman%27s_Bastion", "lat": 47.501670000000004, "long": 19.035, "theme": "Historical"}, {"poi_name": "Gell%C3%A9rt_Baths", "lat": 47.483708299999996, "long": 19.050972, "theme": "Park"}, {"poi_name": "Gell%C3%A9rt_Hill", "lat": 47.48639, "long": 19.04583, "theme": "Park"}, {"poi_name": "Gell%C3%A9rt_Hill_Cave", "lat": 47.485105600000004, "long": 19.051977800000003, "theme": "Park"}, {"poi_name": "Liberty_Bridge_(Budapest)", "lat": 47.48583, "long": 19.055, "theme": "Transport"}, {"poi_name": "Art_Gallery_of_Ontario", "lat": 43.653890000000004, "long": -79.39278, "theme": "Cultural"}, {"poi_name": "St_Giles%27_Cathedral", "lat": 55.94944, "long": -3.19083, "theme": "Cultural"}, {"poi_name": "National_Museum_of_Scotland", "lat": 55.946940000000005, "long": -3.19, "theme": "Museum"}], "11962592@N00": [{"poi_name": "St._Charles%27s_Church,_Vienna", "lat": 48.198333, "long": 16.371389, "theme": "Historical"}, {"poi_name": "S%C3%A1ndor_Palace", "lat": 47.4978, "long": 19.0378, "theme": "Historical"}, {"poi_name": "National_Sz%C3%A9ch%C3%A9nyi_Library", "lat": 47.495, "long": 19.039170000000002, "theme": "Historical"}], "12024547@N06": [{"poi_name": "Austrian_Parliament_Building", "lat": 48.208059999999996, "long": 16.358060000000002, "theme": "Historical"}], "121033504@N07": [{"poi_name": "Hofburg_Palace", "lat": 48.206507, "long": 16.365262, "theme": "Palace"}, {"poi_name": "Kunsthistorisches_Museum", "lat": 48.2037, "long": 16.3614, "theme": "Museum"}, {"poi_name": "Naturhistorisches_Museum", "lat": 48.2052, "long": 16.3599, "theme": "Museum"}, {"poi_name": "Spanish_Riding_School", "lat": 48.2075, "long": 16.36611, "theme": "Entertainment"}, {"poi_name": "St._Stephen%27s_Cathedral,_Vienna", "lat": 48.2085, "long": 16.373, "theme": "Historical"}, {"poi_name": "St._Charles%27s_Church,_Vienna", "lat": 48.198333, "long": 16.371389, "theme": "Historical"}, {"poi_name": "Vienna_State_Opera", "lat": 48.20278, "long": 16.368472, "theme": "Historical"}, {"poi_name": "Austrian_Parliament_Building", "lat": 48.208059999999996, "long": 16.358060000000002, "theme": "Historical"}], "12111034@N03": [{"poi_name": "MUMOK", "lat": 48.203722, "long": 16.357444, "theme": "Museum"}, {"poi_name": "Naturhistorisches_Museum", "lat": 48.2052, "long": 16.3599, "theme": "Museum"}, {"poi_name": "Kunsthistorisches_Museum", "lat": 48.2037, "long": 16.3614, "theme": "Museum"}, {"poi_name": "Vienna_State_Opera", "lat": 48.20278, "long": 16.368472, "theme": "Historical"}], "12148520@N00": [{"poi_name": "Wiener_Riesenrad", "lat": 48.2166505, "long": 16.3959494, "theme": "Entertainment"}, {"poi_name": "Museum_f%C3%BCr_angewandte_Kunst_Wien", "lat": 48.2075, "long": 16.38167, "theme": "Museum"}], "12173076@N00": [{"poi_name": "Austrian_Parliament_Building", "lat": 48.208059999999996, "long": 16.358060000000002, "theme": "Historical"}], "12176791@N00": [{"poi_name": "St._Stephen%27s_Cathedral,_Vienna", "lat": 48.2085, "long": 16.373, "theme": "Historical"}], "12223306@N00": [{"poi_name": "Tiergarten_Sch%C3%B6nbrunn", "lat": 48.18222, "long": 16.3025, "theme": "Zoo"}, {"poi_name": "Wiener_Riesenrad", "lat": 48.2166505, "long": 16.3959494, "theme": "Entertainment"}, {"poi_name": "Hofburg_Palace", "lat": 48.206507, "long": 16.365262, "theme": "Palace"}, {"poi_name": "Spanish_Riding_School", "lat": 48.2075, "long": 16.36611, "theme": "Entertainment"}, {"poi_name": "St._Stephen%27s_Cathedral,_Vienna", "lat": 48.2085, "long": 16.373, "theme": "Historical"}, {"poi_name": "Palmenhaus_Sch%C3%B6nbrunn", "lat": 48.18472, "long": 16.30278, "theme": "Park"}, {"poi_name": "Mozarthaus_Vienna", "lat": 48.20778, "long": 16.37528, "theme": "Cultural"}], "12238618@N07": [{"poi_name": "St._Stephen%27s_Cathedral,_Vienna", "lat": 48.2085, "long": 16.373, "theme": "Historical"}, {"poi_name": "House_of_Terror", "lat": 47.50694, "long": 19.065279999999998, "theme": "Museum"}], "12246410@N06": [{"poi_name": "St._Stephen%27s_Cathedral,_Vienna", "lat": 48.2085, "long": 16.373, "theme": "Historical"}, {"poi_name": "Wiener_Riesenrad", "lat": 48.2166505, "long": 16.3959494, "theme": "Entertainment"}, {"poi_name": "Museum_f%C3%BCr_angewandte_Kunst_Wien", "lat": 48.2075, "long": 16.38167, "theme": "Museum"}, {"poi_name": "Naturhistorisches_Museum", "lat": 48.2052, "long": 16.3599, "theme": "Museum"}], "12354991@N00": [{"poi_name": "MUMOK", "lat": 48.203722, "long": 16.357444, "theme": "Museum"}, {"poi_name": "Hofburg_Palace", "lat": 48.206507, "long": 16.365262, "theme": "Palace"}], "12357415@N04": [{"poi_name": "St._Charles%27s_Church,_Vienna", "lat": 48.198333, "long": 16.371389, "theme": "Historical"}, {"poi_name": "Gresham_Palace", "lat": 47.4997472, "long": 19.047980600000002, "theme": "Historical"}], "12384872@N08": [{"poi_name": "Naturhistorisches_Museum", "lat": 48.2052, "long": 16.3599, "theme": "Museum"}, {"poi_name": "Kunsthistorisches_Museum", "lat": 48.2037, "long": 16.3614, "theme": "Museum"}, {"poi_name": "St._Stephen%27s_Cathedral,_Vienna", "lat": 48.2085, "long": 16.373, "theme": "Historical"}, {"poi_name": "Fisherman%27s_Bastion", "lat": 47.501670000000004, "long": 19.035, "theme": "Historical"}, {"poi_name": "Gresham_Palace", "lat": 47.4997472, "long": 19.047980600000002, "theme": "Historical"}, {"poi_name": "Buda_Castle", "lat": 47.496109999999994, "long": 19.039720000000003, "theme": "Historical"}, {"poi_name": "Osaka_Castle", "lat": 34.68722, "long": 135.52583, "theme": "Park"}], "12448900@N04": [{"poi_name": "Sch%C3%B6nbrunn_Palace", "lat": 48.184515999999995, "long": 16.311865, "theme": "Palace"}, {"poi_name": "Wiener_Riesenrad", "lat": 48.2166505, "long": 16.3959494, "theme": "Entertainment"}, {"poi_name": "Albertina,_Vienna", "lat": 48.204440000000005, "long": 16.36778, "theme": "Museum"}, {"poi_name": "Hofburg_Palace", "lat": 48.206507, "long": 16.365262, "theme": "Palace"}, {"poi_name": "Kunsthistorisches_Museum", "lat": 48.2037, "long": 16.3614, "theme": "Museum"}, {"poi_name": "Donauturm", "lat": 48.24, "long": 16.410829999999997, "theme": "Structure"}, {"poi_name": "Naturhistorisches_Museum", "lat": 48.2052, "long": 16.3599, "theme": "Museum"}, {"poi_name": "Leopold_Museum", "lat": 48.2025, "long": 16.35889, "theme": "Museum"}, {"poi_name": "Technisches_Museum_Wien", "lat": 48.19083, "long": 16.3175, "theme": "Museum"}, {"poi_name": "Spanish_Riding_School", "lat": 48.2075, "long": 16.36611, "theme": "Entertainment"}, {"poi_name": "MUMOK", "lat": 48.203722, "long": 16.357444, "theme": "Museum"}, {"poi_name": "St._Stephen%27s_Cathedral,_Vienna", "lat": 48.2085, "long": 16.373, "theme": "Historical"}, {"poi_name": "Imperial_Crypt,_Vienna", "lat": 48.20556, "long": 16.36972, "theme": "Historical"}, {"poi_name": "St._Charles%27s_Church,_Vienna", "lat": 48.198333, "long": 16.371389, "theme": "Historical"}, {"poi_name": "Vienna_State_Opera", "lat": 48.20278, "long": 16.368472, "theme": "Historical"}, {"poi_name": "Austrian_National_Library", "lat": 48.206109999999995, "long": 16.36639, "theme": "Historical"}, {"poi_name": "Austrian_Parliament_Building", "lat": 48.208059999999996, "long": 16.358060000000002, "theme": "Historical"}, {"poi_name": "Hungarian_Parliament_Building", "lat": 47.50694, "long": 19.045560000000002, "theme": "Historical"}, {"poi_name": "S%C3%A1ndor_Palace", "lat": 47.4978, "long": 19.0378, "theme": "Historical"}, {"poi_name": "Saint_Stephen%27s_Basilica", "lat": 47.500833, "long": 19.053889, "theme": "Cultural"}, {"poi_name": "Gresham_Palace", "lat": 47.4997472, "long": 19.047980600000002, "theme": "Historical"}, {"poi_name": "Shoes_on_the_Danube_Promenade", "lat": 47.5039028, "long": 19.044783300000002, "theme": "Park"}, {"poi_name": "Sz%C3%A9chenyi_Chain_Bridge", "lat": 47.49889, "long": 19.04361, "theme": "Transport"}, {"poi_name": "Hungarian_State_Opera_House", "lat": 47.5028083, "long": 19.0581889, "theme": "Cultural"}, {"poi_name": "Matthias_Church", "lat": 47.501940000000005, "long": 19.03417, "theme": "Cultural"}, {"poi_name": "Fisherman%27s_Bastion", "lat": 47.501670000000004, "long": 19.035, "theme": "Historical"}, {"poi_name": "Vigad%C3%B3_Concert_Hall", "lat": 47.4958944, "long": 19.0494556, "theme": "Cultural"}, {"poi_name": "Budapest_Kunsthalle", "lat": 47.5140222, "long": 19.0786778, "theme": "Museum"}, {"poi_name": "Museum_of_Fine_Arts_(Budapest)", "lat": 47.51611, "long": 19.07639, "theme": "Museum"}], "12481689@N04": [{"poi_name": "MUMOK", "lat": 48.203722, "long": 16.357444, "theme": "Museum"}, {"poi_name": "Haus_der_Musik", "lat": 48.20417, "long": 16.37333, "theme": "Museum"}, {"poi_name": "Albertina,_Vienna", "lat": 48.204440000000005, "long": 16.36778, "theme": "Museum"}], "12520526@N07": [{"poi_name": "Sch%C3%B6nbrunn_Palace", "lat": 48.184515999999995, "long": 16.311865, "theme": "Palace"}, {"poi_name": "Albertina,_Vienna", "lat": 48.204440000000005, "long": 16.36778, "theme": "Museum"}, {"poi_name": "Hofburg_Palace", "lat": 48.206507, "long": 16.365262, "theme": "Palace"}, {"poi_name": "Naturhistorisches_Museum", "lat": 48.2052, "long": 16.3599, "theme": "Museum"}, {"poi_name": "St._Stephen%27s_Cathedral,_Vienna", "lat": 48.2085, "long": 16.373, "theme": "Historical"}, {"poi_name": "Vienna_State_Opera", "lat": 48.20278, "long": 16.368472, "theme": "Historical"}, {"poi_name": "Hungarian_Parliament_Building", "lat": 47.50694, "long": 19.045560000000002, "theme": "Historical"}, {"poi_name": "Saint_Stephen%27s_Basilica", "lat": 47.500833, "long": 19.053889, "theme": "Cultural"}, {"poi_name": "S%C3%A1ndor_Palace", "lat": 47.4978, "long": 19.0378, "theme": "Historical"}, {"poi_name": "Gresham_Palace", "lat": 47.4997472, "long": 19.047980600000002, "theme": "Historical"}, {"poi_name": "Buda_Castle", "lat": 47.496109999999994, "long": 19.039720000000003, "theme": "Historical"}, {"poi_name": "Sz%C3%A9chenyi_Chain_Bridge", "lat": 47.49889, "long": 19.04361, "theme": "Transport"}, {"poi_name": "Hungarian_State_Opera_House", "lat": 47.5028083, "long": 19.0581889, "theme": "Cultural"}, {"poi_name": "Statue_Park_(Budapest)", "lat": 47.426333299999996, "long": 18.9989306, "theme": "Museum"}, {"poi_name": "Matthias_Church", "lat": 47.501940000000005, "long": 19.03417, "theme": "Cultural"}, {"poi_name": "Fisherman%27s_Bastion", "lat": 47.501670000000004, "long": 19.035, "theme": "Historical"}, {"poi_name": "Sz%C3%A9chenyi_Medicinal_Bath", "lat": 47.518609999999995, "long": 19.08194, "theme": "Park"}, {"poi_name": "Vajdahunyad_Castle", "lat": 47.51528, "long": 19.08194, "theme": "Historical"}, {"poi_name": "Gell%C3%A9rt_Hill", "lat": 47.48639, "long": 19.04583, "theme": "Park"}, {"poi_name": "Great_Market_Hall_(Budapest)", "lat": 47.486670000000004, "long": 19.058889999999998, "theme": "Shopping"}, {"poi_name": "Liberty_Bridge_(Budapest)", "lat": 47.48583, "long": 19.055, "theme": "Transport"}, {"poi_name": "Budapest_Kunsthalle", "lat": 47.5140222, "long": 19.0786778, "theme": "Museum"}, {"poi_name": "Szabads%C3%A1g_t%C3%A9r", "lat": 47.50472, "long": 19.050279999999997, "theme": "Park"}, {"poi_name": "Doh%C3%A1ny_Street_Synagogue", "lat": 47.49583, "long": 19.06083, "theme": "Museum"}], "12547641@N00": [{"poi_name": "MUMOK", "lat": 48.203722, "long": 16.357444, "theme": "Museum"}, {"poi_name": "Sch%C3%B6nbrunn_Palace", "lat": 48.184515999999995, "long": 16.311865, "theme": "Palace"}, {"poi_name": "St._Charles%27s_Church,_Vienna", "lat": 48.198333, "long": 16.371389, "theme": "Historical"}, {"poi_name": "Kunsthistorisches_Museum", "lat": 48.2037, "long": 16.3614, "theme": "Museum"}, {"poi_name": "National_Sz%C3%A9ch%C3%A9nyi_Library", "lat": 47.495, "long": 19.039170000000002, "theme": "Historical"}, {"poi_name": "Matthias_Church", "lat": 47.501940000000005, "long": 19.03417, "theme": "Cultural"}, {"poi_name": "Vajdahunyad_Castle", "lat": 47.51528, "long": 19.08194, "theme": "Historical"}, {"poi_name": "Franz_Liszt_Academy_of_Music", "lat": 47.503247200000004, "long": 19.0645167, "theme": "Cultural"}, {"poi_name": "Szabads%C3%A1g_t%C3%A9r", "lat": 47.50472, "long": 19.050279999999997, "theme": "Park"}], "12692384@N00": [{"poi_name": "Wiener_Riesenrad", "lat": 48.2166505, "long": 16.3959494, "theme": "Entertainment"}], "12717705@N02": [{"poi_name": "St._Stephen%27s_Cathedral,_Vienna", "lat": 48.2085, "long": 16.373, "theme": "Historical"}], "12915821@N00": [{"poi_name": "Sch%C3%B6nbrunn_Palace", "lat": 48.184515999999995, "long": 16.311865, "theme": "Palace"}, {"poi_name": "Edinburgh_Castle", "lat": 55.948611, "long": -3.2008330000000003, "theme": "Historical"}], "12995467@N00": [{"poi_name": "Spanish_Riding_School", "lat": 48.2075, "long": 16.36611, "theme": "Entertainment"}, {"poi_name": "Hungarian_Parliament_Building", "lat": 47.50694, "long": 19.045560000000002, "theme": "Historical"}, {"poi_name": "Saint_Stephen%27s_Basilica", "lat": 47.500833, "long": 19.053889, "theme": "Cultural"}, {"poi_name": "Gresham_Palace", "lat": 47.4997472, "long": 19.047980600000002, "theme": "Historical"}, {"poi_name": "Matthias_Church", "lat": 47.501940000000005, "long": 19.03417, "theme": "Cultural"}, {"poi_name": "Szabads%C3%A1g_t%C3%A9r", "lat": 47.50472, "long": 19.050279999999997, "theme": "Park"}], "13101576@N06": [{"poi_name": "St._Charles%27s_Church,_Vienna", "lat": 48.198333, "long": 16.371389, "theme": "Historical"}], "13774428@N02": [{"poi_name": "Vienna_State_Opera", "lat": 48.20278, "long": 16.368472, "theme": "Historical"}], "13818951@N08": [{"poi_name": "Sch%C3%B6nbrunn_Palace", "lat": 48.184515999999995, "long": 16.311865, "theme": "Palace"}, {"poi_name": "Hofburg_Palace", "lat": 48.206507, "long": 16.365262, "theme": "Palace"}, {"poi_name": "Kunsthistorisches_Museum", "lat": 48.2037, "long": 16.3614, "theme": "Museum"}, {"poi_name": "Spanish_Riding_School", "lat": 48.2075, "long": 16.36611, "theme": "Entertainment"}, {"poi_name": "St._Stephen%27s_Cathedral,_Vienna", "lat": 48.2085, "long": 16.373, "theme": "Historical"}, {"poi_name": "St._Charles%27s_Church,_Vienna", "lat": 48.198333, "long": 16.371389, "theme": "Historical"}, {"poi_name": "Vienna_State_Opera", "lat": 48.20278, "long": 16.368472, "theme": "Historical"}, {"poi_name": "Austrian_National_Library", "lat": 48.206109999999995, "long": 16.36639, "theme": "Historical"}, {"poi_name": "Austrian_Parliament_Building", "lat": 48.208059999999996, "long": 16.358060000000002, "theme": "Historical"}], "13897419@N02": [{"poi_name": "St._Charles%27s_Church,_Vienna", "lat": 48.198333, "long": 16.371389, "theme": "Historical"}, {"poi_name": "Hungarian_National_Museum", "lat": 47.49111, "long": 19.06278, "theme": "Museum"}, {"poi_name": "S%C3%A1ndor_Palace", "lat": 47.4978, "long": 19.0378, "theme": "Historical"}, {"poi_name": "Liberty_Statue_(Budapest)", "lat": 47.48639, "long": 19.04806, "theme": "Park"}, {"poi_name": "Budapest_Kunsthalle", "lat": 47.5140222, "long": 19.0786778, "theme": "Museum"}, {"poi_name": "Sumiyoshi_taisha", "lat": 34.6127972, "long": 135.4929417, "theme": "Historical"}, {"poi_name": "Princes_Street_Gardens", "lat": 55.95005, "long": -3.2029944, "theme": "Park"}], "14051628@N00": [{"poi_name": "Wiener_Riesenrad", "lat": 48.2166505, "long": 16.3959494, "theme": "Entertainment"}], "14254333@N08": [{"poi_name": "St._Stephen%27s_Cathedral,_Vienna", "lat": 48.2085, "long": 16.373, "theme": "Historical"}, {"poi_name": "Leopold_Museum", "lat": 48.2025, "long": 16.35889, "theme": "Museum"}, {"poi_name": "St._Charles%27s_Church,_Vienna", "lat": 48.198333, "long": 16.371389, "theme": "Historical"}, {"poi_name": "Austrian_National_Library", "lat": 48.206109999999995, "long": 16.36639, "theme": "Historical"}], "14261684@N08": [{"poi_name": "Naturhistorisches_Museum", "lat": 48.2052, "long": 16.3599, "theme": "Museum"}], "14280458@N05": [{"poi_name": "Sch%C3%B6nbrunn_Palace", "lat": 48.184515999999995, "long": 16.311865, "theme": "Palace"}, {"poi_name": "Edinburgh_Castle", "lat": 55.948611, "long": -3.2008330000000003, "theme": "Historical"}], "14376117@N05": [{"poi_name": "St._Stephen%27s_Cathedral,_Vienna", "lat": 48.2085, "long": 16.373, "theme": "Historical"}, {"poi_name": "St._Charles%27s_Church,_Vienna", "lat": 48.198333, "long": 16.371389, "theme": "Historical"}], "14385354@N00": [{"poi_name": "Wiener_Riesenrad", "lat": 48.2166505, "long": 16.3959494, "theme": "Entertainment"}, {"poi_name": "Albertina,_Vienna", "lat": 48.204440000000005, "long": 16.36778, "theme": "Museum"}, {"poi_name": "Kunsthistorisches_Museum", "lat": 48.2037, "long": 16.3614, "theme": "Museum"}, {"poi_name": "Haus_des_Meeres", "lat": 48.1975, "long": 16.35306, "theme": "Zoo"}, {"poi_name": "MUMOK", "lat": 48.203722, "long": 16.357444, "theme": "Museum"}, {"poi_name": "Imperial_Crypt,_Vienna", "lat": 48.20556, "long": 16.36972, "theme": "Historical"}, {"poi_name": "St._Charles%27s_Church,_Vienna", "lat": 48.198333, "long": 16.371389, "theme": "Historical"}], "14424402@N06": [{"poi_name": "Belvedere_(palace)", "lat": 48.191439, "long": 16.380786999999998, "theme": "Palace"}], "14493914@N00": [{"poi_name": "Hofburg_Palace", "lat": 48.206507, "long": 16.365262, "theme": "Palace"}, {"poi_name": "Naturhistorisches_Museum", "lat": 48.2052, "long": 16.3599, "theme": "Museum"}, {"poi_name": "Schatzkammer_(Vienna)", "lat": 48.20667, "long": 16.365560000000002, "theme": "Museum"}, {"poi_name": "Spanish_Riding_School", "lat": 48.2075, "long": 16.36611, "theme": "Entertainment"}, {"poi_name": "St._Stephen%27s_Cathedral,_Vienna", "lat": 48.2085, "long": 16.373, "theme": "Historical"}, {"poi_name": "Imperial_Crypt,_Vienna", "lat": 48.20556, "long": 16.36972, "theme": "Historical"}, {"poi_name": "Austrian_Parliament_Building", "lat": 48.208059999999996, "long": 16.358060000000002, "theme": "Historical"}, {"poi_name": "Mozarthaus_Vienna", "lat": 48.20778, "long": 16.37528, "theme": "Cultural"}], "14517065@N00": [{"poi_name": "St._Charles%27s_Church,_Vienna", "lat": 48.198333, "long": 16.371389, "theme": "Historical"}], "14529688@N08": [{"poi_name": "St._Stephen%27s_Cathedral,_Vienna", "lat": 48.2085, "long": 16.373, "theme": "Historical"}, {"poi_name": "Liberty_Statue_(Budapest)", "lat": 47.48639, "long": 19.04806, "theme": "Park"}, {"poi_name": "Vajdahunyad_Castle", "lat": 47.51528, "long": 19.08194, "theme": "Historical"}, {"poi_name": "Budapest_Kunsthalle", "lat": 47.5140222, "long": 19.0786778, "theme": "Museum"}], "14582053@N06": [{"poi_name": "Wiener_Riesenrad", "lat": 48.2166505, "long": 16.3959494, "theme": "Entertainment"}, {"poi_name": "Hofburg_Palace", "lat": 48.206507, "long": 16.365262, "theme": "Palace"}, {"poi_name": "Kunsthistorisches_Museum", "lat": 48.2037, "long": 16.3614, "theme": "Museum"}, {"poi_name": "Naturhistorisches_Museum", "lat": 48.2052, "long": 16.3599, "theme": "Museum"}, {"poi_name": "Spanish_Riding_School", "lat": 48.2075, "long": 16.36611, "theme": "Entertainment"}, {"poi_name": "St._Stephen%27s_Cathedral,_Vienna", "lat": 48.2085, "long": 16.373, "theme": "Historical"}, {"poi_name": "Vienna_State_Opera", "lat": 48.20278, "long": 16.368472, "theme": "Historical"},